[
  {
    "id": 1,
    "name": "Culture Explorer: Anuradhapura, Galle",
    "destinations": [
      "Anuradhapura",
      "Galle"
    ],
    "days": 5,
    "price": 531,
    "interests": [
      "culture"
    ],
    "hotel_level": "Budget",
    "activities": [
      {
        "name": "Ancient Ruins in Anuradhapura",
        "interest": "culture",
        "cost": 53,
        "duration_hours": 2,
        "lat": 6.210678939720237,
        "lon": 79.38265910658512
      },
      {
        "name": "Cultural Show in Galle",
        "interest": "culture",
        "cost": 20,
        "duration_hours": 3,
        "lat": 6.222309792871126,
        "lon": 80.15910026371417
      },
      {
        "name": "Ancient Ruins in Galle",
        "interest": "culture",
        "cost": 83,
        "duration_hours": 3,
        "lat": 6.638405491636339,
        "lon": 80.10003056188313
      }
    ]
  },
  {
    "id": 2,
    "name": "Relax Explorer: Anuradhapura, Kandy",
    "destinations": [
      "Anuradhapura",
      "Kandy"
    ],
    "days": 4,
    "price": 643,
    "interests": [
      "relax"
    ],
    "hotel_level": "Standard",
    "activities": [
      {
        "name": "Boat Ride in Anuradhapura",
        "interest": "relax",
        "cost": 55,
        "duration_hours": 5,
        "lat": 7.973939794615963,
        "lon": 79.16768405095941
      },
      {
        "name": "Spa Treatment in Kandy",
        "interest": "relax",
        "cost": 45,
        "duration_hours": 5,
        "lat": 7.383443492741511,
        "lon": 79.6305064954562
      },
      {
        "name": "Spa Treatment in Kandy",
        "interest": "relax",
        "cost": 15,
        "duration_hours": 3,
        "lat": 6.791557294923738,
        "lon": 80.02538117794354
      }
    ]
  },
  {
    "id": 3,
    "name": "Relax Explorer: Galle",
    "destinations": [
      "Galle"
    ],
    "days": 2,
    "price": 422,
    "interests": [
      "relax"
    ],
    "hotel_level": "Standard",
    "activities": [
      {
        "name": "Spa Treatment in Galle",
        "interest": "relax",
        "cost": 86,
        "duration_hours": 4,
        "lat": 6.059945921532558,
        "lon": 80.06518612873256
      },
      {
        "name": "Beach Chill in Galle",
        "interest": "relax",
        "cost": 24,
        "duration_hours": 4,
        "lat": 6.909654609296822,
        "lon": 80.706354003319
      }
    ]
  },
  {
    "id": 4,
    "name": "Wildlife Explorer: Galle",
    "destinations": [
      "Galle"
    ],
    "days": 1,
    "price": 266,
    "interests": [
      "wildlife"
    ],
    "hotel_level": "Standard",
    "activities": [
      {
        "name": "Turtle Hatchery in Galle",
        "interest": "wildlife",
        "cost": 13,
        "duration_hours": 4,
        "lat": 7.87381677953322,
        "lon": 79.261011241752
      },
      {
        "name": "Whale Watching in Galle",
        "interest": "wildlife",
        "cost": 69,
        "duration_hours": 5,
        "lat": 6.732169513096657,
        "lon": 79.51333199673464
      }
    ]
  },
  {
    "id": 5,
    "name": "Adventure Explorer: Mirissa",
    "destinations": [
      "Mirissa"
    ],
    "days": 1,
    "price": 94,
    "interests": [
      "adventure"
    ],
    "hotel_level": "Luxury",
    "activities": [
      {
        "name": "Ziplining in Mirissa",
        "interest": "adventure",
        "cost": 33,
        "duration_hours": 5,
        "lat": 7.939053847973321,
        "lon": 80.41580809705582
      }
    ]
  },
  {
    "id": 6,
    "name": "Culture Explorer: Nuwara Eliya",
    "destinations": [
      "Nuwara Eliya"
    ],
    "days": 2,
    "price": 235,
    "interests": [
      "culture"
    ],
    "hotel_level": "Luxury",
    "activities": [
      {
        "name": "Cultural Show in Nuwara Eliya",
        "interest": "culture",
        "cost": 31,
        "duration_hours": 2,
        "lat": 6.147912783566529,
        "lon": 80.02726942146016
      }
    ]
  },
  {
    "id": 7,
    "name": "Relax Explorer: Ella",
    "destinations": [
      "Ella"
    ],
    "days": 1,
    "price": 215,
    "interests": [
      "relax"
    ],
    "hotel_level": "Budget",
    "activities": [
      {
        "name": "Spa Treatment in Ella",
        "interest": "relax",
        "cost": 31,
        "duration_hours": 3,
        "lat": 7.414984279691903,
        "lon": 79.5510340492887
      }
    ]
  },
  {
    "id": 8,
    "name": "Wildlife Explorer: Galle, Ella",
    "destinations": [
      "Galle",
      "Ella"
    ],
    "days": 4,
    "price": 847,
    "interests": [
      "wildlife"
    ],
    "hotel_level": "Budget",
    "activities": [
      {
        "name": "Bird Watching in Galle",
        "interest": "wildlife",
        "cost": 54,
        "duration_hours": 2,
        "lat": 7.970125676359107,
        "lon": 79.6699258279809
      },
      {
        "name": "Turtle Hatchery in Galle",
        "interest": "wildlife",
        "cost": 17,
        "duration_hours": 4,
        "lat": 7.04577685857833,
        "lon": 80.06150740663868
      },
      {
        "name": "Jeep Safari in Ella",
        "interest": "wildlife",
        "cost": 67,
        "duration_hours": 3,
        "lat": 6.753669855153203,
        "lon": 80.11093035361422
      },
      {
        "name": "Whale Watching in Ella",
        "interest": "wildlife",
        "cost": 69,
        "duration_hours": 2,
        "lat": 7.646974928119973,
        "lon": 79.74160933934738
      }
    ]
  },
  {
    "id": 9,
    "name": "Adventure Explorer: Sigiriya",
    "destinations": [
      "Sigiriya"
    ],
    "days": 1,
    "price": 90,
    "interests": [
      "adventure"
    ],
    "hotel_level": "Luxury",
    "activities": [
      {
        "name": "Surfing in Sigiriya",
        "interest": "adventure",
        "cost": 23,
        "duration_hours": 3,
        "lat": 7.159666806438818,
        "lon": 80.04993340465823
      }
    ]
  },
  {
    "id": 10,
    "name": "Culture Explorer: Nuwara Eliya",
    "destinations": [
      "Nuwara Eliya"
    ],
    "days": 2,
    "price": 401,
    "interests": [
      "culture"
    ],
    "hotel_level": "Standard",
    "activities": [
      {
        "name": "Cultural Show in Nuwara Eliya",
        "interest": "culture",
        "cost": 55,
        "duration_hours": 4,
        "lat": 7.218990474360263,
        "lon": 79.09396302824281
      }
    ]
  },
  {
    "id": 11,
    "name": "Adventure Explorer: Kandy, Yala",
    "destinations": [
      "Kandy",
      "Yala"
    ],
    "days": 5,
    "price": 496,
    "interests": [
      "adventure"
    ],
    "hotel_level": "Standard",
    "activities": [
      {
        "name": "Hiking in Kandy",
        "interest": "adventure",
        "cost": 45,
        "duration_hours": 4,
        "lat": 6.879456389054508,
        "lon": 80.11958334657928
      },
      {
        "name": "Surfing in Kandy",
        "interest": "adventure",
        "cost": 42,
        "duration_hours": 4,
        "lat": 7.29796244502549,
        "lon": 80.72872927428598
      },
      {
        "name": "Surfing in Yala",
        "interest": "adventure",
        "cost": 32,
        "duration_hours": 2,
        "lat": 7.112909036533066,
        "lon": 80.63767903330901
      },
      {
        "name": "Snorkeling in Yala",
        "interest": "adventure",
        "cost": 22,
        "duration_hours": 2,
        "lat": 7.852819263053861,
        "lon": 79.14336015435319
      }
    ]
  },
  {
    "id": 12,
    "name": "Culture Explorer: Ella, Sigiriya",
    "destinations": [
      "Ella",
      "Sigiriya"
    ],
    "days": 4,
    "price": 785,
    "interests": [
      "culture"
    ],
    "hotel_level": "Standard",
    "activities": [
      {
        "name": "Museum Tour in Ella",
        "interest": "culture",
        "cost": 58,
        "duration_hours": 3,
        "lat": 7.071925119462206,
        "lon": 79.31836322033273
      },
      {
        "name": "Temple Visit in Ella",
        "interest": "culture",
        "cost": 70,
        "duration_hours": 3,
        "lat": 7.484496574732188,
        "lon": 80.05142081161308
      },
      {
        "name": "Cultural Show in Sigiriya",
        "interest": "culture",
        "cost": 25,
        "duration_hours": 4,
        "lat": 7.76722931740373,
        "lon": 80.32211395808648
      },
      {
        "name": "Museum Tour in Sigiriya",
        "interest": "culture",
        "cost": 20,
        "duration_hours": 3,
        "lat": 7.639619891636004,
        "lon": 79.095683111745
      }
    ]
  },
  {
    "id": 13,
    "name": "Wildlife Explorer: Colombo",
    "destinations": [
      "Colombo"
    ],
    "days": 2,
    "price": 287,
    "interests": [
      "wildlife"
    ],
    "hotel_level": "Standard",
    "activities": [
      {
        "name": "Jeep Safari in Colombo",
        "interest": "wildlife",
        "cost": 69,
        "duration_hours": 3,
        "lat": 7.754648185855819,
        "lon": 79.77352085010442
      }
    ]
  },
  {
    "id": 14,
    "name": "Adventure Explorer: Kandy",
    "destinations": [
      "Kandy"
    ],
    "days": 4,
    "price": 826,
    "interests": [
      "adventure"
    ],
    "hotel_level": "Budget",
    "activities": [
      {
        "name": "Snorkeling in Kandy",
        "interest": "adventure",
        "cost": 53,
        "duration_hours": 3,
        "lat": 6.5152294788869165,
        "lon": 79.69195828210331
      },
      {
        "name": "Hiking in Kandy",
        "interest": "adventure",
        "cost": 45,
        "duration_hours": 4,
        "lat": 7.3910039429789,
        "lon": 79.56481773217152
      }
    ]
  },
  {
    "id": 15,
    "name": "Relax Explorer: Anuradhapura, Nuwara Eliya",
    "destinations": [
      "Anuradhapura",
      "Nuwara Eliya"
    ],
    "days": 4,
    "price": 815,
    "interests": [
      "relax"
    ],
    "hotel_level": "Budget",
    "activities": [
      {
        "name": "Spa Treatment in Anuradhapura",
        "interest": "relax",
        "cost": 85,
        "duration_hours": 4,
        "lat": 6.891120234000224,
        "lon": 80.06500560431961
      },
      {
        "name": "Spa Treatment in Anuradhapura",
        "interest": "relax",
        "cost": 52,
        "duration_hours": 5,
        "lat": 7.7937961091993415,
        "lon": 79.00489571216652
      },
      {
        "name": "Beach Chill in Nuwara Eliya",
        "interest": "relax",
        "cost": 80,
        "duration_hours": 3,
        "lat": 6.903283590251613,
        "lon": 80.87997946659266
      },
      {
        "name": "Beach Chill in Nuwara Eliya",
        "interest": "relax",
        "cost": 98,
        "duration_hours": 5,
        "lat": 7.279216949586336,
        "lon": 80.5950970502911
      }
    ]
  },
  {
    "id": 16,
    "name": "Relax Explorer: Galle, Kandy",
    "destinations": [
      "Galle",
      "Kandy"
    ],
    "days": 5,
    "price": 605,
    "interests": [
      "relax"
    ],
    "hotel_level": "Luxury",
    "activities": [
      {
        "name": "Beach Chill in Galle",
        "interest": "relax",
        "cost": 66,
        "duration_hours": 4,
        "lat": 6.383820487519398,
        "lon": 80.0157454883206
      },
      {
        "name": "Spa Treatment in Kandy",
        "interest": "relax",
        "cost": 34,
        "duration_hours": 2,
        "lat": 7.190215456781104,
        "lon": 80.6589599120223
      }
    ]
  },
  {
    "id": 17,
    "name": "Adventure Explorer: Colombo",
    "destinations": [
      "Colombo"
    ],
    "days": 2,
    "price": 376,
    "interests": [
      "adventure"
    ],
    "hotel_level": "Budget",
    "activities": [
      {
        "name": "Ziplining in Colombo",
        "interest": "adventure",
        "cost": 95,
        "duration_hours": 2,
        "lat": 7.359859653905876,
        "lon": 79.75139213968731
      },
      {
        "name": "Hiking in Colombo",
        "interest": "adventure",
        "cost": 49,
        "duration_hours": 4,
        "lat": 7.5311642714121145,
        "lon": 80.02461002133819
      }
    ]
  },
  {
    "id": 18,
    "name": "Adventure Explorer: Yala",
    "destinations": [
      "Yala"
    ],
    "days": 1,
    "price": 144,
    "interests": [
      "adventure"
    ],
    "hotel_level": "Standard",
    "activities": [
      {
        "name": "Hiking in Yala",
        "interest": "adventure",
        "cost": 54,
        "duration_hours": 3,
        "lat": 7.061404394028882,
        "lon": 79.57958701101131
      },
      {
        "name": "Hiking in Yala",
        "interest": "adventure",
        "cost": 35,
        "duration_hours": 5,
        "lat": 7.200194637340331,
        "lon": 80.0700638332944
      }
    ]
  },
  {
    "id": 19,
    "name": "Culture Explorer: Ella, Anuradhapura",
    "destinations": [
      "Ella",
      "Anuradhapura"
    ],
    "days": 4,
    "price": 846,
    "interests": [
      "culture"
    ],
    "hotel_level": "Luxury",
    "activities": [
      {
        "name": "Ancient Ruins in Ella",
        "interest": "culture",
        "cost": 29,
        "duration_hours": 3,
        "lat": 6.433026760243341,
        "lon": 79.05752752963976
      },
      {
        "name": "Ancient Ruins in Anuradhapura",
        "interest": "culture",
        "cost": 33,
        "duration_hours": 3,
        "lat": 7.922007064608561,
        "lon": 79.10602690451647
      },
      {
        "name": "Museum Tour in Anuradhapura",
        "interest": "culture",
        "cost": 44,
        "duration_hours": 4,
        "lat": 7.610320013782622,
        "lon": 80.61436208337358
      }
    ]
  },
  {
    "id": 20,
    "name": "Culture Explorer: Galle",
    "destinations": [
      "Galle"
    ],
    "days": 3,
    "price": 552,
    "interests": [
      "culture"
    ],
    "hotel_level": "Budget",
    "activities": [
      {
        "name": "Ancient Ruins in Galle",
        "interest": "culture",
        "cost": 60,
        "duration_hours": 4,
        "lat": 7.215098901336364,
        "lon": 79.74060628315927
      }
    ]
  },
  {
    "id": 21,
    "name": "Adventure Explorer: Ella",
    "destinations": [
      "Ella"
    ],
    "days": 5,
    "price": 584,
    "interests": [
      "adventure"
    ],
    "hotel_level": "Standard",
    "activities": [
      {
        "name": "Surfing in Ella",
        "interest": "adventure",
        "cost": 32,
        "duration_hours": 2,
        "lat": 7.946463584017011,
        "lon": 80.99097513900685
      },
      {
        "name": "Ziplining in Ella",
        "interest": "adventure",
        "cost": 17,
        "duration_hours": 5,
        "lat": 6.7576834732769075,
        "lon": 80.99054706374619
      }
    ]
  },
  {
    "id": 22,
    "name": "Culture Explorer: Sigiriya",
    "destinations": [
      "Sigiriya"
    ],
    "days": 1,
    "price": 127,
    "interests": [
      "culture"
    ],
    "hotel_level": "Standard",
    "activities": [
      {
        "name": "Museum Tour in Sigiriya",
        "interest": "culture",
        "cost": 34,
        "duration_hours": 3,
        "lat": 7.202507474100004,
        "lon": 80.1123181975688
      }
    ]
  },
  {
    "id": 23,
    "name": "Wildlife Explorer: Colombo, Mirissa",
    "destinations": [
      "Colombo",
      "Mirissa"
    ],
    "days": 4,
    "price": 588,
    "interests": [
      "wildlife"
    ],
    "hotel_level": "Luxury",
    "activities": [
      {
        "name": "Turtle Hatchery in Colombo",
        "interest": "wildlife",
        "cost": 37,
        "duration_hours": 4,
        "lat": 6.634516975438273,
        "lon": 79.28945343115278
      },
      {
        "name": "Jeep Safari in Colombo",
        "interest": "wildlife",
        "cost": 32,
        "duration_hours": 2,
        "lat": 7.548209396340382,
        "lon": 80.04879336748155
      },
      {
        "name": "Turtle Hatchery in Mirissa",
        "interest": "wildlife",
        "cost": 39,
        "duration_hours": 4,
        "lat": 6.507300894123003,
        "lon": 80.17427537932524
      }
    ]
  },
  {
    "id": 24,
    "name": "Wildlife Explorer: Anuradhapura",
    "destinations": [
      "Anuradhapura"
    ],
    "days": 3,
    "price": 653,
    "interests": [
      "wildlife"
    ],
    "hotel_level": "Budget",
    "activities": [
      {
        "name": "Jeep Safari in Anuradhapura",
        "interest": "wildlife",
        "cost": 67,
        "duration_hours": 5,
        "lat": 7.882972447665242,
        "lon": 80.66214493068483
      },
      {
        "name": "Whale Watching in Anuradhapura",
        "interest": "wildlife",
        "cost": 58,
        "duration_hours": 4,
        "lat": 7.85015519166719,
        "lon": 79.14120533520682
      }
    ]
  },
  {
    "id": 25,
    "name": "Relax Explorer: Mirissa",
    "destinations": [
      "Mirissa"
    ],
    "days": 3,
    "price": 405,
    "interests": [
      "relax"
    ],
    "hotel_level": "Budget",
    "activities": [
      {
        "name": "Boat Ride in Mirissa",
        "interest": "relax",
        "cost": 97,
        "duration_hours": 4,
        "lat": 7.590762450607572,
        "lon": 80.10027366185145
      },
      {
        "name": "Sunset Walk in Mirissa",
        "interest": "relax",
        "cost": 26,
        "duration_hours": 4,
        "lat": 6.284180674818687,
        "lon": 79.75064758380857
      }
    ]
  },
  {
    "id": 26,
    "name": "Relax Explorer: Sigiriya",
    "destinations": [
      "Sigiriya"
    ],
    "days": 2,
    "price": 361,
    "interests": [
      "relax"
    ],
    "hotel_level": "Budget",
    "activities": [
      {
        "name": "Boat Ride in Sigiriya",
        "interest": "relax",
        "cost": 54,
        "duration_hours": 2,
        "lat": 7.198045738180134,
        "lon": 79.0951330480287
      },
      {
        "name": "Sunset Walk in Sigiriya",
        "interest": "relax",
        "cost": 57,
        "duration_hours": 2,
        "lat": 7.9451364784404195,
        "lon": 79.83251075439574
      }
    ]
  },
  {
    "id": 27,
    "name": "Relax Explorer: Sigiriya",
    "destinations": [
      "Sigiriya"
    ],
    "days": 1,
    "price": 175,
    "interests": [
      "relax"
    ],
    "hotel_level": "Luxury",
    "activities": [
      {
        "name": "Boat Ride in Sigiriya",
        "interest": "relax",
        "cost": 99,
        "duration_hours": 5,
        "lat": 7.916784346258218,
        "lon": 79.66180231796429
      }
    ]
  },
  {
    "id": 28,
    "name": "Wildlife Explorer: Yala",
    "destinations": [
      "Yala"
    ],
    "days": 5,
    "price": 1099,
    "interests": [
      "wildlife"
    ],
    "hotel_level": "Luxury",
    "activities": [
      {
        "name": "Turtle Hatchery in Yala",
        "interest": "wildlife",
        "cost": 84,
        "duration_hours": 3,
        "lat": 6.788353525567166,
        "lon": 79.34147702090445
      },
      {
        "name": "Bird Watching in Yala",
        "interest": "wildlife",
        "cost": 20,
        "duration_hours": 2,
        "lat": 6.419553694950974,
        "lon": 79.1461786719427
      }
    ]
  },
  {
    "id": 29,
    "name": "Relax Explorer: Kandy",
    "destinations": [
      "Kandy"
    ],
    "days": 2,
    "price": 380,
    "interests": [
      "relax"
    ],
    "hotel_level": "Standard",
    "activities": [
      {
        "name": "Beach Chill in Kandy",
        "interest": "relax",
        "cost": 43,
        "duration_hours": 4,
        "lat": 6.627897139808784,
        "lon": 79.42669204814491
      },
      {
        "name": "Beach Chill in Kandy",
        "interest": "relax",
        "cost": 49,
        "duration_hours": 4,
        "lat": 7.670025688501757,
        "lon": 80.39554550977864
      }
    ]
  },
  {
    "id": 30,
    "name": "Adventure Explorer: Anuradhapura",
    "destinations": [
      "Anuradhapura"
    ],
    "days": 3,
    "price": 413,
    "interests": [
      "adventure"
    ],
    "hotel_level": "Luxury",
    "activities": [
      {
        "name": "Hiking in Anuradhapura",
        "interest": "adventure",
        "cost": 93,
        "duration_hours": 2,
        "lat": 6.234610019242261,
        "lon": 80.69782218701654
      },
      {
        "name": "Hiking in Anuradhapura",
        "interest": "adventure",
        "cost": 23,
        "duration_hours": 4,
        "lat": 7.3694825998274975,
        "lon": 79.4685943322126
      }
    ]
  },
  {
    "id": 31,
    "name": "Culture Explorer: Yala",
    "destinations": [
      "Yala"
    ],
    "days": 4,
    "price": 422,
    "interests": [
      "culture"
    ],
    "hotel_level": "Standard",
    "activities": [
      {
        "name": "Ancient Ruins in Yala",
        "interest": "culture",
        "cost": 58,
        "duration_hours": 3,
        "lat": 6.167448981035475,
        "lon": 79.89355396067953
      },
      {
        "name": "Cultural Show in Yala",
        "interest": "culture",
        "cost": 52,
        "duration_hours": 3,
        "lat": 6.3778902572568255,
        "lon": 79.60104615008761
      }
    ]
  },
  {
    "id": 32,
    "name": "Wildlife Explorer: Galle, Kandy",
    "destinations": [
      "Galle",
      "Kandy"
    ],
    "days": 5,
    "price": 642,
    "interests": [
      "wildlife"
    ],
    "hotel_level": "Luxury",
    "activities": [
      {
        "name": "Whale Watching in Galle",
        "interest": "wildlife",
        "cost": 36,
        "duration_hours": 4,
        "lat": 7.24669017680153,
        "lon": 79.23849869925333
      },
      {
        "name": "Jeep Safari in Kandy",
        "interest": "wildlife",
        "cost": 45,
        "duration_hours": 5,
        "lat": 6.492802229821783,
        "lon": 79.68379373139136
      },
      {
        "name": "Jeep Safari in Kandy",
        "interest": "wildlife",
        "cost": 96,
        "duration_hours": 2,
        "lat": 7.842335415360715,
        "lon": 80.75699937451503
      }
    ]
  },
  {
    "id": 33,
    "name": "Adventure Explorer: Colombo",
    "destinations": [
      "Colombo"
    ],
    "days": 1,
    "price": 195,
    "interests": [
      "adventure"
    ],
    "hotel_level": "Luxury",
    "activities": [
      {
        "name": "Surfing in Colombo",
        "interest": "adventure",
        "cost": 35,
        "duration_hours": 2,
        "lat": 6.660870816414704,
        "lon": 79.9286929131109
      }
    ]
  },
  {
    "id": 34,
    "name": "Culture Explorer: Trincomalee",
    "destinations": [
      "Trincomalee"
    ],
    "days": 2,
    "price": 396,
    "interests": [
      "culture"
    ],
    "hotel_level": "Budget",
    "activities": [
      {
        "name": "Ancient Ruins in Trincomalee",
        "interest": "culture",
        "cost": 64,
        "duration_hours": 4,
        "lat": 6.083381020993211,
        "lon": 79.49278427262098
      }
    ]
  },
  {
    "id": 35,
    "name": "Wildlife Explorer: Colombo",
    "destinations": [
      "Colombo"
    ],
    "days": 3,
    "price": 301,
    "interests": [
      "wildlife"
    ],
    "hotel_level": "Luxury",
    "activities": [
      {
        "name": "Bird Watching in Colombo",
        "interest": "wildlife",
        "cost": 45,
        "duration_hours": 5,
        "lat": 7.318728841808918,
        "lon": 80.94565702918504
      },
      {
        "name": "Bird Watching in Colombo",
        "interest": "wildlife",
        "cost": 52,
        "duration_hours": 5,
        "lat": 6.461999531644331,
        "lon": 80.853763755397
      }
    ]
  },
  {
    "id": 36,
    "name": "Adventure Explorer: Kandy",
    "destinations": [
      "Kandy"
    ],
    "days": 2,
    "price": 305,
    "interests": [
      "adventure"
    ],
    "hotel_level": "Luxury",
    "activities": [
      {
        "name": "Surfing in Kandy",
        "interest": "adventure",
        "cost": 55,
        "duration_hours": 3,
        "lat": 6.571117865015314,
        "lon": 79.55007325686593
      }
    ]
  },
  {
    "id": 37,
    "name": "Culture Explorer: Nuwara Eliya",
    "destinations": [
      "Nuwara Eliya"
    ],
    "days": 1,
    "price": 336,
    "interests": [
      "culture"
    ],
    "hotel_level": "Luxury",
    "activities": [
      {
        "name": "Cultural Show in Nuwara Eliya",
        "interest": "culture",
        "cost": 88,
        "duration_hours": 5,
        "lat": 6.252438849484998,
        "lon": 80.2272124112998
      },
      {
        "name": "Temple Visit in Nuwara Eliya",
        "interest": "culture",
        "cost": 58,
        "duration_hours": 4,
        "lat": 6.961689401630359,
        "lon": 80.19916329228015
      }
    ]
  },
  {
    "id": 38,
    "name": "Relax Explorer: Yala",
    "destinations": [
      "Yala"
    ],
    "days": 1,
    "price": 100,
    "interests": [
      "relax"
    ],
    "hotel_level": "Budget",
    "activities": [
      {
        "name": "Sunset Walk in Yala",
        "interest": "relax",
        "cost": 47,
        "duration_hours": 2,
        "lat": 6.782986454995335,
        "lon": 80.60878809231862
      }
    ]
  },
  {
    "id": 39,
    "name": "Relax Explorer: Colombo",
    "destinations": [
      "Colombo"
    ],
    "days": 2,
    "price": 466,
    "interests": [
      "relax"
    ],
    "hotel_level": "Standard",
    "activities": [
      {
        "name": "Spa Treatment in Colombo",
        "interest": "relax",
        "cost": 98,
        "duration_hours": 2,
        "lat": 7.74358106525002,
        "lon": 79.98872787248098
      }
    ]
  },
  {
    "id": 40,
    "name": "Wildlife Explorer: Mirissa",
    "destinations": [
      "Mirissa"
    ],
    "days": 2,
    "price": 423,
    "interests": [
      "wildlife"
    ],
    "hotel_level": "Standard",
    "activities": [
      {
        "name": "Bird Watching in Mirissa",
        "interest": "wildlife",
        "cost": 47,
        "duration_hours": 4,
        "lat": 7.89852666832025,
        "lon": 79.20203638270976
      }
    ]
  },
  {
    "id": 41,
    "name": "Relax Explorer: Galle",
    "destinations": [
      "Galle"
    ],
    "days": 3,
    "price": 675,
    "interests": [
      "relax"
    ],
    "hotel_level": "Budget",
    "activities": [
      {
        "name": "Boat Ride in Galle",
        "interest": "relax",
        "cost": 82,
        "duration_hours": 2,
        "lat": 7.406237771066972,
        "lon": 80.74770037681559
      },
      {
        "name": "Beach Chill in Galle",
        "interest": "relax",
        "cost": 14,
        "duration_hours": 3,
        "lat": 7.4150845884923555,
        "lon": 80.94534773784623
      }
    ]
  },
  {
    "id": 42,
    "name": "Wildlife Explorer: Sigiriya",
    "destinations": [
      "Sigiriya"
    ],
    "days": 2,
    "price": 202,
    "interests": [
      "wildlife"
    ],
    "hotel_level": "Luxury",
    "activities": [
      {
        "name": "Jeep Safari in Sigiriya",
        "interest": "wildlife",
        "cost": 36,
        "duration_hours": 5,
        "lat": 6.612839491184079,
        "lon": 79.58951042620149
      }
    ]
  },
  {
    "id": 43,
    "name": "Adventure Explorer: Mirissa",
    "destinations": [
      "Mirissa"
    ],
    "days": 1,
    "price": 276,
    "interests": [
      "adventure"
    ],
    "hotel_level": "Budget",
    "activities": [
      {
        "name": "Snorkeling in Mirissa",
        "interest": "adventure",
        "cost": 90,
        "duration_hours": 2,
        "lat": 6.924676742087189,
        "lon": 80.02169169185206
      }
    ]
  },
  {
    "id": 44,
    "name": "Relax Explorer: Mirissa",
    "destinations": [
      "Mirissa"
    ],
    "days": 2,
    "price": 340,
    "interests": [
      "relax"
    ],
    "hotel_level": "Luxury",
    "activities": [
      {
        "name": "Beach Chill in Mirissa",
        "interest": "relax",
        "cost": 15,
        "duration_hours": 5,
        "lat": 7.1064850404970805,
        "lon": 80.10862377783522
      },
      {
        "name": "Boat Ride in Mirissa",
        "interest": "relax",
        "cost": 35,
        "duration_hours": 5,
        "lat": 7.147423522040957,
        "lon": 79.34877606590854
      }
    ]
  },
  {
    "id": 45,
    "name": "Adventure Explorer: Trincomalee, Nuwara Eliya",
    "destinations": [
      "Trincomalee",
      "Nuwara Eliya"
    ],
    "days": 4,
    "price": 852,
    "interests": [
      "adventure"
    ],
    "hotel_level": "Standard",
    "activities": [
      {
        "name": "Ziplining in Trincomalee",
        "interest": "adventure",
        "cost": 44,
        "duration_hours": 2,
        "lat": 7.428083296124061,
        "lon": 79.39714483810536
      },
      {
        "name": "Ziplining in Trincomalee",
        "interest": "adventure",
        "cost": 99,
        "duration_hours": 2,
        "lat": 6.165310659097306,
        "lon": 80.53892672418185
      },
      {
        "name": "Hiking in Nuwara Eliya",
        "interest": "adventure",
        "cost": 61,
        "duration_hours": 4,
        "lat": 7.568556892244023,
        "lon": 79.3612868041242
      }
    ]
  },
  {
    "id": 46,
    "name": "Relax Explorer: Colombo",
    "destinations": [
      "Colombo"
    ],
    "days": 3,
    "price": 643,
    "interests": [
      "relax"
    ],
    "hotel_level": "Luxury",
    "activities": [
      {
        "name": "Sunset Walk in Colombo",
        "interest": "relax",
        "cost": 56,
        "duration_hours": 4,
        "lat": 7.177468782101219,
        "lon": 80.60553534100981
      },
      {
        "name": "Boat Ride in Colombo",
        "interest": "relax",
        "cost": 44,
        "duration_hours": 4,
        "lat": 6.1270392583374385,
        "lon": 79.65652986220194
      }
    ]
  },
  {
    "id": 47,
    "name": "Relax Explorer: Kandy",
    "destinations": [
      "Kandy"
    ],
    "days": 4,
    "price": 554,
    "interests": [
      "relax"
    ],
    "hotel_level": "Budget",
    "activities": [
      {
        "name": "Boat Ride in Kandy",
        "interest": "relax",
        "cost": 46,
        "duration_hours": 4,
        "lat": 6.2587170829218675,
        "lon": 79.99180845723829
      }
    ]
  },
  {
    "id": 48,
    "name": "Culture Explorer: Ella",
    "destinations": [
      "Ella"
    ],
    "days": 2,
    "price": 199,
    "interests": [
      "culture"
    ],
    "hotel_level": "Standard",
    "activities": [
      {
        "name": "Cultural Show in Ella",
        "interest": "culture",
        "cost": 51,
        "duration_hours": 4,
        "lat": 6.726904289705225,
        "lon": 80.49888543646014
      },
      {
        "name": "Cultural Show in Ella",
        "interest": "culture",
        "cost": 12,
        "duration_hours": 4,
        "lat": 7.065035549310775,
        "lon": 80.394709442303
      }
    ]
  },
  {
    "id": 49,
    "name": "Culture Explorer: Anuradhapura",
    "destinations": [
      "Anuradhapura"
    ],
    "days": 3,
    "price": 489,
    "interests": [
      "culture"
    ],
    "hotel_level": "Standard",
    "activities": [
      {
        "name": "Ancient Ruins in Anuradhapura",
        "interest": "culture",
        "cost": 75,
        "duration_hours": 5,
        "lat": 6.3631031455709595,
        "lon": 80.19447949136037
      }
    ]
  },
  {
    "id": 50,
    "name": "Relax Explorer: Galle",
    "destinations": [
      "Galle"
    ],
    "days": 2,
    "price": 452,
    "interests": [
      "relax"
    ],
    "hotel_level": "Standard",
    "activities": [
      {
        "name": "Beach Chill in Galle",
        "interest": "relax",
        "cost": 84,
        "duration_hours": 3,
        "lat": 7.216018691178688,
        "lon": 80.05018109414092
      },
      {
        "name": "Sunset Walk in Galle",
        "interest": "relax",
        "cost": 56,
        "duration_hours": 4,
        "lat": 7.554809337582962,
        "lon": 80.55329790997197
      }
    ]
  },
  {
    "id": 51,
    "name": "Culture Explorer: Anuradhapura",
    "destinations": [
      "Anuradhapura"
    ],
    "days": 4,
    "price": 769,
    "interests": [
      "culture"
    ],
    "hotel_level": "Standard",
    "activities": [
      {
        "name": "Ancient Ruins in Anuradhapura",
        "interest": "culture",
        "cost": 64,
        "duration_hours": 2,
        "lat": 6.506607895760295,
        "lon": 80.5923444422414
      },
      {
        "name": "Museum Tour in Anuradhapura",
        "interest": "culture",
        "cost": 89,
        "duration_hours": 3,
        "lat": 7.053657893462248,
        "lon": 80.89898577178347
      }
    ]
  },
  {
    "id": 52,
    "name": "Culture Explorer: Anuradhapura",
    "destinations": [
      "Anuradhapura"
    ],
    "days": 1,
    "price": 361,
    "interests": [
      "culture"
    ],
    "hotel_level": "Budget",
    "activities": [
      {
        "name": "Ancient Ruins in Anuradhapura",
        "interest": "culture",
        "cost": 82,
        "duration_hours": 4,
        "lat": 7.472293399867144,
        "lon": 79.49874955978822
      },
      {
        "name": "Temple Visit in Anuradhapura",
        "interest": "culture",
        "cost": 84,
        "duration_hours": 5,
        "lat": 7.431836776639316,
        "lon": 79.1851167750414
      }
    ]
  },
  {
    "id": 53,
    "name": "Adventure Explorer: Ella",
    "destinations": [
      "Ella"
    ],
    "days": 3,
    "price": 637,
    "interests": [
      "adventure"
    ],
    "hotel_level": "Luxury",
    "activities": [
      {
        "name": "Snorkeling in Ella",
        "interest": "adventure",
        "cost": 58,
        "duration_hours": 5,
        "lat": 6.131469958380855,
        "lon": 79.59100876385357
      },
      {
        "name": "Snorkeling in Ella",
        "interest": "adventure",
        "cost": 81,
        "duration_hours": 3,
        "lat": 7.734397289759916,
        "lon": 79.68285418270652
      }
    ]
  },
  {
    "id": 54,
    "name": "Culture Explorer: Galle",
    "destinations": [
      "Galle"
    ],
    "days": 5,
    "price": 374,
    "interests": [
      "culture"
    ],
    "hotel_level": "Standard",
    "activities": [
      {
        "name": "Temple Visit in Galle",
        "interest": "culture",
        "cost": 99,
        "duration_hours": 5,
        "lat": 7.811850959386151,
        "lon": 79.48112797977404
      }
    ]
  },
  {
    "id": 55,
    "name": "Adventure Explorer: Galle",
    "destinations": [
      "Galle"
    ],
    "days": 1,
    "price": 213,
    "interests": [
      "adventure"
    ],
    "hotel_level": "Standard",
    "activities": [
      {
        "name": "Snorkeling in Galle",
        "interest": "adventure",
        "cost": 84,
        "duration_hours": 3,
        "lat": 7.826537154475,
        "lon": 79.02363461899897
      }
    ]
  },
  {
    "id": 56,
    "name": "Wildlife Explorer: Nuwara Eliya",
    "destinations": [
      "Nuwara Eliya"
    ],
    "days": 3,
    "price": 573,
    "interests": [
      "wildlife"
    ],
    "hotel_level": "Standard",
    "activities": [
      {
        "name": "Turtle Hatchery in Nuwara Eliya",
        "interest": "wildlife",
        "cost": 63,
        "duration_hours": 4,
        "lat": 7.2650077374936854,
        "lon": 80.90137853375306
      },
      {
        "name": "Jeep Safari in Nuwara Eliya",
        "interest": "wildlife",
        "cost": 39,
        "duration_hours": 5,
        "lat": 7.8223352808884385,
        "lon": 79.7447714557775
      }
    ]
  },
  {
    "id": 57,
    "name": "Adventure Explorer: Sigiriya, Yala",
    "destinations": [
      "Sigiriya",
      "Yala"
    ],
    "days": 5,
    "price": 619,
    "interests": [
      "adventure"
    ],
    "hotel_level": "Luxury",
    "activities": [
      {
        "name": "Surfing in Sigiriya",
        "interest": "adventure",
        "cost": 22,
        "duration_hours": 5,
        "lat": 7.759648654706456,
        "lon": 80.35130054311607
      },
      {
        "name": "Hiking in Sigiriya",
        "interest": "adventure",
        "cost": 12,
        "duration_hours": 3,
        "lat": 7.590743383387047,
        "lon": 80.43563546753776
      },
      {
        "name": "Snorkeling in Yala",
        "interest": "adventure",
        "cost": 26,
        "duration_hours": 3,
        "lat": 7.730062399324118,
        "lon": 79.96725039489422
      },
      {
        "name": "Ziplining in Yala",
        "interest": "adventure",
        "cost": 99,
        "duration_hours": 3,
        "lat": 6.168336069144836,
        "lon": 79.16800761835079
      }
    ]
  },
  {
    "id": 58,
    "name": "Adventure Explorer: Yala",
    "destinations": [
      "Yala"
    ],
    "days": 5,
    "price": 453,
    "interests": [
      "adventure"
    ],
    "hotel_level": "Luxury",
    "activities": [
      {
        "name": "Hiking in Yala",
        "interest": "adventure",
        "cost": 30,
        "duration_hours": 2,
        "lat": 7.134604995990845,
        "lon": 80.20744105742897
      },
      {
        "name": "Ziplining in Yala",
        "interest": "adventure",
        "cost": 98,
        "duration_hours": 4,
        "lat": 7.596430767901229,
        "lon": 80.75802034214425
      }
    ]
  },
  {
    "id": 59,
    "name": "Wildlife Explorer: Yala",
    "destinations": [
      "Yala"
    ],
    "days": 2,
    "price": 344,
    "interests": [
      "wildlife"
    ],
    "hotel_level": "Luxury",
    "activities": [
      {
        "name": "Jeep Safari in Yala",
        "interest": "wildlife",
        "cost": 46,
        "duration_hours": 4,
        "lat": 6.448880691376851,
        "lon": 80.95154024044928
      }
    ]
  },
  {
    "id": 60,
    "name": "Wildlife Explorer: Yala",
    "destinations": [
      "Yala"
    ],
    "days": 2,
    "price": 307,
    "interests": [
      "wildlife"
    ],
    "hotel_level": "Standard",
    "activities": [
      {
        "name": "Jeep Safari in Yala",
        "interest": "wildlife",
        "cost": 10,
        "duration_hours": 3,
        "lat": 6.617821420810073,
        "lon": 79.40469973079493
      },
      {
        "name": "Jeep Safari in Yala",
        "interest": "wildlife",
        "cost": 49,
        "duration_hours": 4,
        "lat": 6.083542128870843,
        "lon": 80.05181914706817
      }
    ]
  },
  {
    "id": 61,
    "name": "Wildlife Explorer: Mirissa",
    "destinations": [
      "Mirissa"
    ],
    "days": 5,
    "price": 991,
    "interests": [
      "wildlife"
    ],
    "hotel_level": "Budget",
    "activities": [
      {
        "name": "Jeep Safari in Mirissa",
        "interest": "wildlife",
        "cost": 14,
        "duration_hours": 5,
        "lat": 7.931436394623766,
        "lon": 80.31730680730485
      },
      {
        "name": "Turtle Hatchery in Mirissa",
        "interest": "wildlife",
        "cost": 82,
        "duration_hours": 2,
        "lat": 6.3776541214896625,
        "lon": 79.32307383642895
      }
    ]
  },
  {
    "id": 62,
    "name": "Culture Explorer: Galle",
    "destinations": [
      "Galle"
    ],
    "days": 3,
    "price": 483,
    "interests": [
      "culture"
    ],
    "hotel_level": "Budget",
    "activities": [
      {
        "name": "Temple Visit in Galle",
        "interest": "culture",
        "cost": 54,
        "duration_hours": 5,
        "lat": 6.30720596749989,
        "lon": 79.14620123549953
      },
      {
        "name": "Cultural Show in Galle",
        "interest": "culture",
        "cost": 93,
        "duration_hours": 3,
        "lat": 6.085695424662104,
        "lon": 80.44865733400927
      }
    ]
  },
  {
    "id": 63,
    "name": "Culture Explorer: Sigiriya, Mirissa",
    "destinations": [
      "Sigiriya",
      "Mirissa"
    ],
    "days": 5,
    "price": 407,
    "interests": [
      "culture"
    ],
    "hotel_level": "Budget",
    "activities": [
      {
        "name": "Temple Visit in Sigiriya",
        "interest": "culture",
        "cost": 10,
        "duration_hours": 4,
        "lat": 7.997599913607353,
        "lon": 79.82642653794443
      },
      {
        "name": "Ancient Ruins in Mirissa",
        "interest": "culture",
        "cost": 87,
        "duration_hours": 5,
        "lat": 6.162039783756136,
        "lon": 79.05060140960816
      }
    ]
  },
  {
    "id": 64,
    "name": "Relax Explorer: Yala",
    "destinations": [
      "Yala"
    ],
    "days": 2,
    "price": 413,
    "interests": [
      "relax"
    ],
    "hotel_level": "Budget",
    "activities": [
      {
        "name": "Beach Chill in Yala",
        "interest": "relax",
        "cost": 22,
        "duration_hours": 2,
        "lat": 7.38973508798812,
        "lon": 80.32261339958094
      },
      {
        "name": "Spa Treatment in Yala",
        "interest": "relax",
        "cost": 59,
        "duration_hours": 2,
        "lat": 7.302965661473054,
        "lon": 80.74889787062942
      }
    ]
  },
  {
    "id": 65,
    "name": "Adventure Explorer: Galle",
    "destinations": [
      "Galle"
    ],
    "days": 1,
    "price": 215,
    "interests": [
      "adventure"
    ],
    "hotel_level": "Standard",
    "activities": [
      {
        "name": "Surfing in Galle",
        "interest": "adventure",
        "cost": 79,
        "duration_hours": 5,
        "lat": 7.101475593378142,
        "lon": 79.94858120518157
      }
    ]
  },
  {
    "id": 66,
    "name": "Wildlife Explorer: Trincomalee",
    "destinations": [
      "Trincomalee"
    ],
    "days": 2,
    "price": 313,
    "interests": [
      "wildlife"
    ],
    "hotel_level": "Luxury",
    "activities": [
      {
        "name": "Jeep Safari in Trincomalee",
        "interest": "wildlife",
        "cost": 11,
        "duration_hours": 3,
        "lat": 6.584535471722665,
        "lon": 80.47783734593548
      }
    ]
  },
  {
    "id": 67,
    "name": "Culture Explorer: Ella",
    "destinations": [
      "Ella"
    ],
    "days": 4,
    "price": 803,
    "interests": [
      "culture"
    ],
    "hotel_level": "Budget",
    "activities": [
      {
        "name": "Museum Tour in Ella",
        "interest": "culture",
        "cost": 90,
        "duration_hours": 3,
        "lat": 6.063095822276159,
        "lon": 79.97055514417639
      },
      {
        "name": "Ancient Ruins in Ella",
        "interest": "culture",
        "cost": 65,
        "duration_hours": 5,
        "lat": 7.94764121444584,
        "lon": 79.30041976285445
      }
    ]
  },
  {
    "id": 68,
    "name": "Adventure Explorer: Kandy",
    "destinations": [
      "Kandy"
    ],
    "days": 1,
    "price": 227,
    "interests": [
      "adventure"
    ],
    "hotel_level": "Luxury",
    "activities": [
      {
        "name": "Hiking in Kandy",
        "interest": "adventure",
        "cost": 63,
        "duration_hours": 2,
        "lat": 6.5660040136068805,
        "lon": 79.73733258717151
      },
      {
        "name": "Hiking in Kandy",
        "interest": "adventure",
        "cost": 80,
        "duration_hours": 4,
        "lat": 6.638793641484309,
        "lon": 80.3371994345884
      }
    ]
  },
  {
    "id": 69,
    "name": "Adventure Explorer: Colombo",
    "destinations": [
      "Colombo"
    ],
    "days": 4,
    "price": 577,
    "interests": [
      "adventure"
    ],
    "hotel_level": "Budget",
    "activities": [
      {
        "name": "Ziplining in Colombo",
        "interest": "adventure",
        "cost": 57,
        "duration_hours": 4,
        "lat": 7.919823167042204,
        "lon": 80.77886880634341
      }
    ]
  },
  {
    "id": 70,
    "name": "Culture Explorer: Mirissa",
    "destinations": [
      "Mirissa"
    ],
    "days": 3,
    "price": 523,
    "interests": [
      "culture"
    ],
    "hotel_level": "Luxury",
    "activities": [
      {
        "name": "Ancient Ruins in Mirissa",
        "interest": "culture",
        "cost": 64,
        "duration_hours": 5,
        "lat": 7.967318687014954,
        "lon": 79.92133443463997
      }
    ]
  },
  {
    "id": 71,
    "name": "Wildlife Explorer: Kandy",
    "destinations": [
      "Kandy"
    ],
    "days": 1,
    "price": 323,
    "interests": [
      "wildlife"
    ],
    "hotel_level": "Standard",
    "activities": [
      {
        "name": "Turtle Hatchery in Kandy",
        "interest": "wildlife",
        "cost": 87,
        "duration_hours": 5,
        "lat": 7.652120000111881,
        "lon": 80.82922760307628
      },
      {
        "name": "Whale Watching in Kandy",
        "interest": "wildlife",
        "cost": 57,
        "duration_hours": 2,
        "lat": 7.091075859439331,
        "lon": 80.34757783281738
      }
    ]
  },
  {
    "id": 72,
    "name": "Culture Explorer: Kandy",
    "destinations": [
      "Kandy"
    ],
    "days": 1,
    "price": 122,
    "interests": [
      "culture"
    ],
    "hotel_level": "Luxury",
    "activities": [
      {
        "name": "Ancient Ruins in Kandy",
        "interest": "culture",
        "cost": 24,
        "duration_hours": 4,
        "lat": 7.464442239067057,
        "lon": 79.76295502704117
      }
    ]
  },
  {
    "id": 73,
    "name": "Relax Explorer: Anuradhapura",
    "destinations": [
      "Anuradhapura"
    ],
    "days": 3,
    "price": 589,
    "interests": [
      "relax"
    ],
    "hotel_level": "Budget",
    "activities": [
      {
        "name": "Sunset Walk in Anuradhapura",
        "interest": "relax",
        "cost": 40,
        "duration_hours": 2,
        "lat": 7.535418836100554,
        "lon": 80.25447065874782
      }
    ]
  },
  {
    "id": 74,
    "name": "Relax Explorer: Kandy, Sigiriya",
    "destinations": [
      "Kandy",
      "Sigiriya"
    ],
    "days": 4,
    "price": 588,
    "interests": [
      "relax"
    ],
    "hotel_level": "Standard",
    "activities": [
      {
        "name": "Spa Treatment in Kandy",
        "interest": "relax",
        "cost": 65,
        "duration_hours": 4,
        "lat": 6.174657042546826,
        "lon": 80.50765344079882
      },
      {
        "name": "Sunset Walk in Kandy",
        "interest": "relax",
        "cost": 82,
        "duration_hours": 5,
        "lat": 6.727827483606662,
        "lon": 79.32261809845272
      },
      {
        "name": "Beach Chill in Sigiriya",
        "interest": "relax",
        "cost": 79,
        "duration_hours": 3,
        "lat": 6.6636978401660025,
        "lon": 80.59843620015975
      },
      {
        "name": "Spa Treatment in Sigiriya",
        "interest": "relax",
        "cost": 94,
        "duration_hours": 5,
        "lat": 6.407846335049084,
        "lon": 79.4760661397324
      }
    ]
  },
  {
    "id": 75,
    "name": "Culture Explorer: Trincomalee",
    "destinations": [
      "Trincomalee"
    ],
    "days": 1,
    "price": 269,
    "interests": [
      "culture"
    ],
    "hotel_level": "Luxury",
    "activities": [
      {
        "name": "Cultural Show in Trincomalee",
        "interest": "culture",
        "cost": 98,
        "duration_hours": 3,
        "lat": 7.171672122236432,
        "lon": 79.29219368517393
      }
    ]
  },
  {
    "id": 76,
    "name": "Relax Explorer: Trincomalee",
    "destinations": [
      "Trincomalee"
    ],
    "days": 1,
    "price": 175,
    "interests": [
      "relax"
    ],
    "hotel_level": "Standard",
    "activities": [
      {
        "name": "Sunset Walk in Trincomalee",
        "interest": "relax",
        "cost": 25,
        "duration_hours": 5,
        "lat": 7.767630200236534,
        "lon": 80.58751363234481
      },
      {
        "name": "Spa Treatment in Trincomalee",
        "interest": "relax",
        "cost": 88,
        "duration_hours": 3,
        "lat": 7.749418245694832,
        "lon": 79.78864202989558
      }
    ]
  },
  {
    "id": 77,
    "name": "Culture Explorer: Colombo",
    "destinations": [
      "Colombo"
    ],
    "days": 2,
    "price": 309,
    "interests": [
      "culture"
    ],
    "hotel_level": "Luxury",
    "activities": [
      {
        "name": "Cultural Show in Colombo",
        "interest": "culture",
        "cost": 57,
        "duration_hours": 2,
        "lat": 6.817539711571866,
        "lon": 80.98065685665044
      },
      {
        "name": "Ancient Ruins in Colombo",
        "interest": "culture",
        "cost": 74,
        "duration_hours": 2,
        "lat": 7.1000036098153005,
        "lon": 79.92234353127247
      }
    ]
  },
  {
    "id": 78,
    "name": "Adventure Explorer: Anuradhapura, Sigiriya",
    "destinations": [
      "Anuradhapura",
      "Sigiriya"
    ],
    "days": 5,
    "price": 739,
    "interests": [
      "adventure"
    ],
    "hotel_level": "Budget",
    "activities": [
      {
        "name": "Snorkeling in Anuradhapura",
        "interest": "adventure",
        "cost": 76,
        "duration_hours": 2,
        "lat": 6.045200381390315,
        "lon": 80.21092134673216
      },
      {
        "name": "Snorkeling in Anuradhapura",
        "interest": "adventure",
        "cost": 46,
        "duration_hours": 4,
        "lat": 7.007599907395042,
        "lon": 80.16169645501924
      },
      {
        "name": "Snorkeling in Sigiriya",
        "interest": "adventure",
        "cost": 34,
        "duration_hours": 5,
        "lat": 6.024211837186441,
        "lon": 80.22504617888909
      },
      {
        "name": "Ziplining in Sigiriya",
        "interest": "adventure",
        "cost": 68,
        "duration_hours": 3,
        "lat": 7.983764013751675,
        "lon": 79.72946542957918
      }
    ]
  },
  {
    "id": 79,
    "name": "Adventure Explorer: Nuwara Eliya, Kandy",
    "destinations": [
      "Nuwara Eliya",
      "Kandy"
    ],
    "days": 5,
    "price": 1041,
    "interests": [
      "adventure"
    ],
    "hotel_level": "Standard",
    "activities": [
      {
        "name": "Snorkeling in Nuwara Eliya",
        "interest": "adventure",
        "cost": 25,
        "duration_hours": 5,
        "lat": 7.759587331951771,
        "lon": 80.82402160867815
      },
      {
        "name": "Snorkeling in Kandy",
        "interest": "adventure",
        "cost": 93,
        "duration_hours": 5,
        "lat": 6.504259638547731,
        "lon": 79.04600491381821
      },
      {
        "name": "Ziplining in Kandy",
        "interest": "adventure",
        "cost": 43,
        "duration_hours": 4,
        "lat": 6.992226037976702,
        "lon": 80.39862685421787
      }
    ]
  },
  {
    "id": 80,
    "name": "Relax Explorer: Sigiriya",
    "destinations": [
      "Sigiriya"
    ],
    "days": 3,
    "price": 363,
    "interests": [
      "relax"
    ],
    "hotel_level": "Luxury",
    "activities": [
      {
        "name": "Spa Treatment in Sigiriya",
        "interest": "relax",
        "cost": 68,
        "duration_hours": 5,
        "lat": 7.353561465875111,
        "lon": 79.56415671839572
      },
      {
        "name": "Beach Chill in Sigiriya",
        "interest": "relax",
        "cost": 58,
        "duration_hours": 2,
        "lat": 6.140784196927348,
        "lon": 80.41485662918396
      }
    ]
  },
  {
    "id": 81,
    "name": "Adventure Explorer: Sigiriya, Nuwara Eliya",
    "destinations": [
      "Sigiriya",
      "Nuwara Eliya"
    ],
    "days": 4,
    "price": 823,
    "interests": [
      "adventure"
    ],
    "hotel_level": "Luxury",
    "activities": [
      {
        "name": "Hiking in Sigiriya",
        "interest": "adventure",
        "cost": 93,
        "duration_hours": 2,
        "lat": 7.478609606209774,
        "lon": 79.71531183950944
      },
      {
        "name": "Ziplining in Sigiriya",
        "interest": "adventure",
        "cost": 53,
        "duration_hours": 2,
        "lat": 7.447317263290651,
        "lon": 79.10772856834379
      },
      {
        "name": "Surfing in Nuwara Eliya",
        "interest": "adventure",
        "cost": 22,
        "duration_hours": 5,
        "lat": 7.317886945184641,
        "lon": 79.8578293494652
      },
      {
        "name": "Ziplining in Nuwara Eliya",
        "interest": "adventure",
        "cost": 79,
        "duration_hours": 5,
        "lat": 7.359968627355222,
        "lon": 79.98435368679309
      }
    ]
  },
  {
    "id": 82,
    "name": "Relax Explorer: Colombo, Trincomalee",
    "destinations": [
      "Colombo",
      "Trincomalee"
    ],
    "days": 5,
    "price": 476,
    "interests": [
      "relax"
    ],
    "hotel_level": "Standard",
    "activities": [
      {
        "name": "Beach Chill in Colombo",
        "interest": "relax",
        "cost": 19,
        "duration_hours": 3,
        "lat": 6.0054000035666375,
        "lon": 80.42408649392974
      },
      {
        "name": "Beach Chill in Trincomalee",
        "interest": "relax",
        "cost": 71,
        "duration_hours": 3,
        "lat": 6.1634129210720685,
        "lon": 80.67208129308136
      },
      {
        "name": "Beach Chill in Trincomalee",
        "interest": "relax",
        "cost": 46,
        "duration_hours": 5,
        "lat": 7.496735383597413,
        "lon": 80.41286528277587
      }
    ]
  },
  {
    "id": 83,
    "name": "Adventure Explorer: Mirissa, Nuwara Eliya",
    "destinations": [
      "Mirissa",
      "Nuwara Eliya"
    ],
    "days": 4,
    "price": 784,
    "interests": [
      "adventure"
    ],
    "hotel_level": "Budget",
    "activities": [
      {
        "name": "Snorkeling in Mirissa",
        "interest": "adventure",
        "cost": 93,
        "duration_hours": 3,
        "lat": 6.8443636717985825,
        "lon": 79.46942770559282
      },
      {
        "name": "Snorkeling in Nuwara Eliya",
        "interest": "adventure",
        "cost": 78,
        "duration_hours": 2,
        "lat": 7.295469768081516,
        "lon": 80.86398158509834
      },
      {
        "name": "Hiking in Nuwara Eliya",
        "interest": "adventure",
        "cost": 13,
        "duration_hours": 4,
        "lat": 6.020410895630837,
        "lon": 80.97243139881428
      }
    ]
  },
  {
    "id": 84,
    "name": "Relax Explorer: Galle",
    "destinations": [
      "Galle"
    ],
    "days": 1,
    "price": 148,
    "interests": [
      "relax"
    ],
    "hotel_level": "Standard",
    "activities": [
      {
        "name": "Sunset Walk in Galle",
        "interest": "relax",
        "cost": 15,
        "duration_hours": 5,
        "lat": 6.123827593559718,
        "lon": 79.16815607649957
      }
    ]
  },
  {
    "id": 85,
    "name": "Wildlife Explorer: Sigiriya",
    "destinations": [
      "Sigiriya"
    ],
    "days": 3,
    "price": 314,
    "interests": [
      "wildlife"
    ],
    "hotel_level": "Budget",
    "activities": [
      {
        "name": "Whale Watching in Sigiriya",
        "interest": "wildlife",
        "cost": 53,
        "duration_hours": 4,
        "lat": 7.316453371501537,
        "lon": 80.41093788463111
      }
    ]
  },
  {
    "id": 86,
    "name": "Wildlife Explorer: Trincomalee",
    "destinations": [
      "Trincomalee"
    ],
    "days": 5,
    "price": 698,
    "interests": [
      "wildlife"
    ],
    "hotel_level": "Budget",
    "activities": [
      {
        "name": "Turtle Hatchery in Trincomalee",
        "interest": "wildlife",
        "cost": 47,
        "duration_hours": 2,
        "lat": 6.5642573244562055,
        "lon": 79.76152450012806
      },
      {
        "name": "Bird Watching in Trincomalee",
        "interest": "wildlife",
        "cost": 66,
        "duration_hours": 3,
        "lat": 6.107842760019769,
        "lon": 79.3961670895514
      }
    ]
  },
  {
    "id": 87,
    "name": "Wildlife Explorer: Kandy",
    "destinations": [
      "Kandy"
    ],
    "days": 1,
    "price": 251,
    "interests": [
      "wildlife"
    ],
    "hotel_level": "Budget",
    "activities": [
      {
        "name": "Whale Watching in Kandy",
        "interest": "wildlife",
        "cost": 63,
        "duration_hours": 4,
        "lat": 7.90773604995443,
        "lon": 80.23607016316234
      }
    ]
  },
  {
    "id": 88,
    "name": "Culture Explorer: Yala",
    "destinations": [
      "Yala"
    ],
    "days": 3,
    "price": 617,
    "interests": [
      "culture"
    ],
    "hotel_level": "Standard",
    "activities": [
      {
        "name": "Cultural Show in Yala",
        "interest": "culture",
        "cost": 32,
        "duration_hours": 3,
        "lat": 7.25549516995223,
        "lon": 80.67173823728598
      }
    ]
  },
  {
    "id": 89,
    "name": "Adventure Explorer: Ella",
    "destinations": [
      "Ella"
    ],
    "days": 2,
    "price": 394,
    "interests": [
      "adventure"
    ],
    "hotel_level": "Luxury",
    "activities": [
      {
        "name": "Snorkeling in Ella",
        "interest": "adventure",
        "cost": 10,
        "duration_hours": 4,
        "lat": 7.222204935571619,
        "lon": 79.11655764039763
      }
    ]
  },
  {
    "id": 90,
    "name": "Wildlife Explorer: Sigiriya",
    "destinations": [
      "Sigiriya"
    ],
    "days": 4,
    "price": 227,
    "interests": [
      "wildlife"
    ],
    "hotel_level": "Standard",
    "activities": [
      {
        "name": "Jeep Safari in Sigiriya",
        "interest": "wildlife",
        "cost": 15,
        "duration_hours": 4,
        "lat": 6.10455449607481,
        "lon": 79.14604150217187
      }
    ]
  },
  {
    "id": 91,
    "name": "Wildlife Explorer: Nuwara Eliya",
    "destinations": [
      "Nuwara Eliya"
    ],
    "days": 2,
    "price": 386,
    "interests": [
      "wildlife"
    ],
    "hotel_level": "Luxury",
    "activities": [
      {
        "name": "Jeep Safari in Nuwara Eliya",
        "interest": "wildlife",
        "cost": 94,
        "duration_hours": 2,
        "lat": 7.3034960923026,
        "lon": 80.24265668876478
      }
    ]
  },
  {
    "id": 92,
    "name": "Culture Explorer: Ella",
    "destinations": [
      "Ella"
    ],
    "days": 3,
    "price": 468,
    "interests": [
      "culture"
    ],
    "hotel_level": "Standard",
    "activities": [
      {
        "name": "Ancient Ruins in Ella",
        "interest": "culture",
        "cost": 81,
        "duration_hours": 3,
        "lat": 7.961118706380759,
        "lon": 80.43600579409818
      }
    ]
  },
  {
    "id": 93,
    "name": "Wildlife Explorer: Yala",
    "destinations": [
      "Yala"
    ],
    "days": 2,
    "price": 435,
    "interests": [
      "wildlife"
    ],
    "hotel_level": "Budget",
    "activities": [
      {
        "name": "Turtle Hatchery in Yala",
        "interest": "wildlife",
        "cost": 37,
        "duration_hours": 2,
        "lat": 6.236145149513715,
        "lon": 79.80346919583899
      }
    ]
  },
  {
    "id": 94,
    "name": "Relax Explorer: Colombo",
    "destinations": [
      "Colombo"
    ],
    "days": 2,
    "price": 477,
    "interests": [
      "relax"
    ],
    "hotel_level": "Standard",
    "activities": [
      {
        "name": "Beach Chill in Colombo",
        "interest": "relax",
        "cost": 79,
        "duration_hours": 2,
        "lat": 7.674940844222396,
        "lon": 79.89933836051782
      },
      {
        "name": "Sunset Walk in Colombo",
        "interest": "relax",
        "cost": 64,
        "duration_hours": 4,
        "lat": 6.873765501532814,
        "lon": 80.69664180769045
      }
    ]
  },
  {
    "id": 95,
    "name": "Culture Explorer: Anuradhapura, Colombo",
    "destinations": [
      "Anuradhapura",
      "Colombo"
    ],
    "days": 5,
    "price": 1141,
    "interests": [
      "culture"
    ],
    "hotel_level": "Standard",
    "activities": [
      {
        "name": "Museum Tour in Anuradhapura",
        "interest": "culture",
        "cost": 55,
        "duration_hours": 2,
        "lat": 7.689045548536008,
        "lon": 80.50847126369861
      },
      {
        "name": "Ancient Ruins in Colombo",
        "interest": "culture",
        "cost": 86,
        "duration_hours": 5,
        "lat": 7.6042129827180975,
        "lon": 79.55081547431983
      }
    ]
  },
  {
    "id": 96,
    "name": "Adventure Explorer: Ella",
    "destinations": [
      "Ella"
    ],
    "days": 4,
    "price": 500,
    "interests": [
      "adventure"
    ],
    "hotel_level": "Standard",
    "activities": [
      {
        "name": "Ziplining in Ella",
        "interest": "adventure",
        "cost": 36,
        "duration_hours": 3,
        "lat": 7.75438876832172,
        "lon": 79.18818015056921
      }
    ]
  },
  {
    "id": 97,
    "name": "Relax Explorer: Kandy",
    "destinations": [
      "Kandy"
    ],
    "days": 5,
    "price": 709,
    "interests": [
      "relax"
    ],
    "hotel_level": "Budget",
    "activities": [
      {
        "name": "Boat Ride in Kandy",
        "interest": "relax",
        "cost": 79,
        "duration_hours": 2,
        "lat": 7.039429511098287,
        "lon": 79.17290128985174
      }
    ]
  },
  {
    "id": 98,
    "name": "Wildlife Explorer: Sigiriya",
    "destinations": [
      "Sigiriya"
    ],
    "days": 1,
    "price": 208,
    "interests": [
      "wildlife"
    ],
    "hotel_level": "Standard",
    "activities": [
      {
        "name": "Turtle Hatchery in Sigiriya",
        "interest": "wildlife",
        "cost": 97,
        "duration_hours": 5,
        "lat": 7.354072957433746,
        "lon": 79.64287484681685
      },
      {
        "name": "Jeep Safari in Sigiriya",
        "interest": "wildlife",
        "cost": 27,
        "duration_hours": 5,
        "lat": 6.162286246646794,
        "lon": 80.87177115411639
      }
    ]
  },
  {
    "id": 99,
    "name": "Wildlife Explorer: Sigiriya",
    "destinations": [
      "Sigiriya"
    ],
    "days": 2,
    "price": 501,
    "interests": [
      "wildlife"
    ],
    "hotel_level": "Budget",
    "activities": [
      {
        "name": "Turtle Hatchery in Sigiriya",
        "interest": "wildlife",
        "cost": 88,
        "duration_hours": 2,
        "lat": 6.260837124016884,
        "lon": 80.48332586726013
      },
      {
        "name": "Bird Watching in Sigiriya",
        "interest": "wildlife",
        "cost": 89,
        "duration_hours": 5,
        "lat": 6.533183107712256,
        "lon": 79.60588084841852
      }
    ]
  },
  {
    "id": 100,
    "name": "Relax Explorer: Kandy",
    "destinations": [
      "Kandy"
    ],
    "days": 3,
    "price": 502,
    "interests": [
      "relax"
    ],
    "hotel_level": "Luxury",
    "activities": [
      {
        "name": "Boat Ride in Kandy",
        "interest": "relax",
        "cost": 81,
        "duration_hours": 3,
        "lat": 7.892422455693578,
        "lon": 79.37040511063523
      },
      {
        "name": "Spa Treatment in Kandy",
        "interest": "relax",
        "cost": 64,
        "duration_hours": 2,
        "lat": 6.71141122242872,
        "lon": 79.05134242358558
      }
    ]
  },
  {
    "id": 101,
    "name": "Wildlife Explorer: Yala, Ella",
    "destinations": [
      "Yala",
      "Ella"
    ],
    "days": 5,
    "price": 695,
    "interests": [
      "wildlife"
    ],
    "hotel_level": "Luxury",
    "activities": [
      {
        "name": "Whale Watching in Yala",
        "interest": "wildlife",
        "cost": 11,
        "duration_hours": 4,
        "lat": 7.525312005322449,
        "lon": 79.13978187360323
      },
      {
        "name": "Turtle Hatchery in Yala",
        "interest": "wildlife",
        "cost": 18,
        "duration_hours": 3,
        "lat": 7.854143256915252,
        "lon": 80.4884095932451
      },
      {
        "name": "Whale Watching in Ella",
        "interest": "wildlife",
        "cost": 82,
        "duration_hours": 4,
        "lat": 7.959416139915774,
        "lon": 80.8824796473521
      },
      {
        "name": "Bird Watching in Ella",
        "interest": "wildlife",
        "cost": 84,
        "duration_hours": 4,
        "lat": 7.522976601161806,
        "lon": 80.8013405222379
      }
    ]
  },
  {
    "id": 102,
    "name": "Adventure Explorer: Kandy",
    "destinations": [
      "Kandy"
    ],
    "days": 1,
    "price": 256,
    "interests": [
      "adventure"
    ],
    "hotel_level": "Standard",
    "activities": [
      {
        "name": "Snorkeling in Kandy",
        "interest": "adventure",
        "cost": 76,
        "duration_hours": 4,
        "lat": 7.830309670610609,
        "lon": 80.14583278373951
      }
    ]
  },
  {
    "id": 103,
    "name": "Culture Explorer: Yala",
    "destinations": [
      "Yala"
    ],
    "days": 1,
    "price": 177,
    "interests": [
      "culture"
    ],
    "hotel_level": "Luxury",
    "activities": [
      {
        "name": "Ancient Ruins in Yala",
        "interest": "culture",
        "cost": 87,
        "duration_hours": 3,
        "lat": 7.557278434018261,
        "lon": 79.14624561123924
      },
      {
        "name": "Temple Visit in Yala",
        "interest": "culture",
        "cost": 10,
        "duration_hours": 3,
        "lat": 6.826447373039028,
        "lon": 80.9363140498209
      }
    ]
  },
  {
    "id": 104,
    "name": "Wildlife Explorer: Nuwara Eliya",
    "destinations": [
      "Nuwara Eliya"
    ],
    "days": 4,
    "price": 592,
    "interests": [
      "wildlife"
    ],
    "hotel_level": "Luxury",
    "activities": [
      {
        "name": "Whale Watching in Nuwara Eliya",
        "interest": "wildlife",
        "cost": 28,
        "duration_hours": 3,
        "lat": 7.24617551649398,
        "lon": 79.4171701400946
      }
    ]
  },
  {
    "id": 105,
    "name": "Adventure Explorer: Nuwara Eliya",
    "destinations": [
      "Nuwara Eliya"
    ],
    "days": 2,
    "price": 290,
    "interests": [
      "adventure"
    ],
    "hotel_level": "Luxury",
    "activities": [
      {
        "name": "Hiking in Nuwara Eliya",
        "interest": "adventure",
        "cost": 86,
        "duration_hours": 3,
        "lat": 7.548258399619344,
        "lon": 79.04035758888388
      },
      {
        "name": "Snorkeling in Nuwara Eliya",
        "interest": "adventure",
        "cost": 64,
        "duration_hours": 4,
        "lat": 7.940582194962586,
        "lon": 80.83613832430936
      }
    ]
  },
  {
    "id": 106,
    "name": "Adventure Explorer: Mirissa",
    "destinations": [
      "Mirissa"
    ],
    "days": 1,
    "price": 232,
    "interests": [
      "adventure"
    ],
    "hotel_level": "Luxury",
    "activities": [
      {
        "name": "Surfing in Mirissa",
        "interest": "adventure",
        "cost": 56,
        "duration_hours": 4,
        "lat": 7.678931926484922,
        "lon": 80.83411190500246
      },
      {
        "name": "Ziplining in Mirissa",
        "interest": "adventure",
        "cost": 23,
        "duration_hours": 3,
        "lat": 6.112935975204777,
        "lon": 80.08331882469706
      }
    ]
  },
  {
    "id": 107,
    "name": "Wildlife Explorer: Kandy",
    "destinations": [
      "Kandy"
    ],
    "days": 5,
    "price": 888,
    "interests": [
      "wildlife"
    ],
    "hotel_level": "Standard",
    "activities": [
      {
        "name": "Bird Watching in Kandy",
        "interest": "wildlife",
        "cost": 91,
        "duration_hours": 2,
        "lat": 7.861008289272659,
        "lon": 80.60051877807518
      },
      {
        "name": "Whale Watching in Kandy",
        "interest": "wildlife",
        "cost": 72,
        "duration_hours": 4,
        "lat": 6.595716497576104,
        "lon": 79.95142585902403
      }
    ]
  },
  {
    "id": 108,
    "name": "Wildlife Explorer: Mirissa",
    "destinations": [
      "Mirissa"
    ],
    "days": 4,
    "price": 402,
    "interests": [
      "wildlife"
    ],
    "hotel_level": "Budget",
    "activities": [
      {
        "name": "Jeep Safari in Mirissa",
        "interest": "wildlife",
        "cost": 33,
        "duration_hours": 3,
        "lat": 7.763004618589542,
        "lon": 79.76037097840695
      },
      {
        "name": "Jeep Safari in Mirissa",
        "interest": "wildlife",
        "cost": 93,
        "duration_hours": 5,
        "lat": 6.973245906403598,
        "lon": 79.7653413851485
      }
    ]
  },
  {
    "id": 109,
    "name": "Wildlife Explorer: Mirissa",
    "destinations": [
      "Mirissa"
    ],
    "days": 2,
    "price": 362,
    "interests": [
      "wildlife"
    ],
    "hotel_level": "Standard",
    "activities": [
      {
        "name": "Jeep Safari in Mirissa",
        "interest": "wildlife",
        "cost": 24,
        "duration_hours": 3,
        "lat": 7.4125552192283735,
        "lon": 80.74291466478981
      }
    ]
  },
  {
    "id": 110,
    "name": "Wildlife Explorer: Galle",
    "destinations": [
      "Galle"
    ],
    "days": 5,
    "price": 462,
    "interests": [
      "wildlife"
    ],
    "hotel_level": "Budget",
    "activities": [
      {
        "name": "Bird Watching in Galle",
        "interest": "wildlife",
        "cost": 27,
        "duration_hours": 5,
        "lat": 7.151533182891089,
        "lon": 80.9773748881266
      }
    ]
  },
  {
    "id": 111,
    "name": "Wildlife Explorer: Anuradhapura",
    "destinations": [
      "Anuradhapura"
    ],
    "days": 1,
    "price": 253,
    "interests": [
      "wildlife"
    ],
    "hotel_level": "Budget",
    "activities": [
      {
        "name": "Jeep Safari in Anuradhapura",
        "interest": "wildlife",
        "cost": 78,
        "duration_hours": 4,
        "lat": 7.054719466851067,
        "lon": 79.05041662962488
      },
      {
        "name": "Turtle Hatchery in Anuradhapura",
        "interest": "wildlife",
        "cost": 86,
        "duration_hours": 2,
        "lat": 7.603859060449375,
        "lon": 80.33352777910036
      }
    ]
  },
  {
    "id": 112,
    "name": "Wildlife Explorer: Anuradhapura",
    "destinations": [
      "Anuradhapura"
    ],
    "days": 1,
    "price": 261,
    "interests": [
      "wildlife"
    ],
    "hotel_level": "Standard",
    "activities": [
      {
        "name": "Bird Watching in Anuradhapura",
        "interest": "wildlife",
        "cost": 83,
        "duration_hours": 5,
        "lat": 6.931269352475511,
        "lon": 79.74156458668492
      }
    ]
  },
  {
    "id": 113,
    "name": "Wildlife Explorer: Kandy",
    "destinations": [
      "Kandy"
    ],
    "days": 3,
    "price": 500,
    "interests": [
      "wildlife"
    ],
    "hotel_level": "Luxury",
    "activities": [
      {
        "name": "Jeep Safari in Kandy",
        "interest": "wildlife",
        "cost": 41,
        "duration_hours": 5,
        "lat": 7.267822465483367,
        "lon": 80.74876663548409
      }
    ]
  },
  {
    "id": 114,
    "name": "Relax Explorer: Yala",
    "destinations": [
      "Yala"
    ],
    "days": 1,
    "price": 200,
    "interests": [
      "relax"
    ],
    "hotel_level": "Luxury",
    "activities": [
      {
        "name": "Boat Ride in Yala",
        "interest": "relax",
        "cost": 47,
        "duration_hours": 4,
        "lat": 7.2203245566548535,
        "lon": 79.9105612647692
      },
      {
        "name": "Sunset Walk in Yala",
        "interest": "relax",
        "cost": 67,
        "duration_hours": 4,
        "lat": 7.007839682786633,
        "lon": 80.99032762758144
      }
    ]
  },
  {
    "id": 115,
    "name": "Culture Explorer: Anuradhapura",
    "destinations": [
      "Anuradhapura"
    ],
    "days": 1,
    "price": 159,
    "interests": [
      "culture"
    ],
    "hotel_level": "Standard",
    "activities": [
      {
        "name": "Temple Visit in Anuradhapura",
        "interest": "culture",
        "cost": 39,
        "duration_hours": 3,
        "lat": 7.361065886317025,
        "lon": 80.32388982710398
      }
    ]
  },
  {
    "id": 116,
    "name": "Relax Explorer: Yala",
    "destinations": [
      "Yala"
    ],
    "days": 2,
    "price": 212,
    "interests": [
      "relax"
    ],
    "hotel_level": "Standard",
    "activities": [
      {
        "name": "Spa Treatment in Yala",
        "interest": "relax",
        "cost": 44,
        "duration_hours": 3,
        "lat": 7.722031109291011,
        "lon": 79.4323038205765
      }
    ]
  },
  {
    "id": 117,
    "name": "Adventure Explorer: Mirissa",
    "destinations": [
      "Mirissa"
    ],
    "days": 2,
    "price": 492,
    "interests": [
      "adventure"
    ],
    "hotel_level": "Luxury",
    "activities": [
      {
        "name": "Surfing in Mirissa",
        "interest": "adventure",
        "cost": 63,
        "duration_hours": 4,
        "lat": 7.0910388829342645,
        "lon": 80.57246117554779
      },
      {
        "name": "Snorkeling in Mirissa",
        "interest": "adventure",
        "cost": 75,
        "duration_hours": 2,
        "lat": 6.080104182991397,
        "lon": 80.83795246467272
      }
    ]
  },
  {
    "id": 118,
    "name": "Wildlife Explorer: Trincomalee",
    "destinations": [
      "Trincomalee"
    ],
    "days": 5,
    "price": 385,
    "interests": [
      "wildlife"
    ],
    "hotel_level": "Budget",
    "activities": [
      {
        "name": "Bird Watching in Trincomalee",
        "interest": "wildlife",
        "cost": 50,
        "duration_hours": 4,
        "lat": 6.885349605531571,
        "lon": 79.7334022581244
      }
    ]
  },
  {
    "id": 119,
    "name": "Wildlife Explorer: Trincomalee",
    "destinations": [
      "Trincomalee"
    ],
    "days": 3,
    "price": 338,
    "interests": [
      "wildlife"
    ],
    "hotel_level": "Standard",
    "activities": [
      {
        "name": "Turtle Hatchery in Trincomalee",
        "interest": "wildlife",
        "cost": 29,
        "duration_hours": 5,
        "lat": 6.2512079562284795,
        "lon": 80.91240952347566
      }
    ]
  },
  {
    "id": 120,
    "name": "Adventure Explorer: Kandy, Anuradhapura",
    "destinations": [
      "Kandy",
      "Anuradhapura"
    ],
    "days": 4,
    "price": 849,
    "interests": [
      "adventure"
    ],
    "hotel_level": "Budget",
    "activities": [
      {
        "name": "Hiking in Kandy",
        "interest": "adventure",
        "cost": 56,
        "duration_hours": 5,
        "lat": 7.669731085856619,
        "lon": 80.47370783812013
      },
      {
        "name": "Hiking in Anuradhapura",
        "interest": "adventure",
        "cost": 45,
        "duration_hours": 2,
        "lat": 7.37774305811403,
        "lon": 80.33982228860722
      }
    ]
  },
  {
    "id": 121,
    "name": "Culture Explorer: Galle, Ella",
    "destinations": [
      "Galle",
      "Ella"
    ],
    "days": 4,
    "price": 729,
    "interests": [
      "culture"
    ],
    "hotel_level": "Luxury",
    "activities": [
      {
        "name": "Temple Visit in Galle",
        "interest": "culture",
        "cost": 31,
        "duration_hours": 3,
        "lat": 6.752586607331476,
        "lon": 80.24760291444902
      },
      {
        "name": "Museum Tour in Ella",
        "interest": "culture",
        "cost": 26,
        "duration_hours": 2,
        "lat": 7.051390404711904,
        "lon": 79.75699030960799
      }
    ]
  },
  {
    "id": 122,
    "name": "Wildlife Explorer: Mirissa",
    "destinations": [
      "Mirissa"
    ],
    "days": 2,
    "price": 299,
    "interests": [
      "wildlife"
    ],
    "hotel_level": "Luxury",
    "activities": [
      {
        "name": "Jeep Safari in Mirissa",
        "interest": "wildlife",
        "cost": 83,
        "duration_hours": 4,
        "lat": 7.234589509976961,
        "lon": 79.67042570560263
      }
    ]
  },
  {
    "id": 123,
    "name": "Wildlife Explorer: Mirissa",
    "destinations": [
      "Mirissa"
    ],
    "days": 3,
    "price": 723,
    "interests": [
      "wildlife"
    ],
    "hotel_level": "Luxury",
    "activities": [
      {
        "name": "Bird Watching in Mirissa",
        "interest": "wildlife",
        "cost": 91,
        "duration_hours": 3,
        "lat": 7.363286677062939,
        "lon": 80.21424161101457
      },
      {
        "name": "Turtle Hatchery in Mirissa",
        "interest": "wildlife",
        "cost": 56,
        "duration_hours": 4,
        "lat": 6.518791861041972,
        "lon": 79.01322156096884
      }
    ]
  },
  {
    "id": 124,
    "name": "Culture Explorer: Sigiriya",
    "destinations": [
      "Sigiriya"
    ],
    "days": 4,
    "price": 796,
    "interests": [
      "culture"
    ],
    "hotel_level": "Budget",
    "activities": [
      {
        "name": "Museum Tour in Sigiriya",
        "interest": "culture",
        "cost": 72,
        "duration_hours": 4,
        "lat": 7.19128691443221,
        "lon": 79.68909198372873
      }
    ]
  },
  {
    "id": 125,
    "name": "Adventure Explorer: Ella",
    "destinations": [
      "Ella"
    ],
    "days": 1,
    "price": 246,
    "interests": [
      "adventure"
    ],
    "hotel_level": "Luxury",
    "activities": [
      {
        "name": "Ziplining in Ella",
        "interest": "adventure",
        "cost": 78,
        "duration_hours": 2,
        "lat": 6.022309189745672,
        "lon": 80.21514182624477
      },
      {
        "name": "Hiking in Ella",
        "interest": "adventure",
        "cost": 17,
        "duration_hours": 5,
        "lat": 6.6346738141456445,
        "lon": 79.1942060378579
      }
    ]
  },
  {
    "id": 126,
    "name": "Adventure Explorer: Sigiriya, Colombo",
    "destinations": [
      "Sigiriya",
      "Colombo"
    ],
    "days": 5,
    "price": 804,
    "interests": [
      "adventure"
    ],
    "hotel_level": "Budget",
    "activities": [
      {
        "name": "Snorkeling in Sigiriya",
        "interest": "adventure",
        "cost": 30,
        "duration_hours": 5,
        "lat": 7.133460256280646,
        "lon": 79.63245580738317
      },
      {
        "name": "Hiking in Colombo",
        "interest": "adventure",
        "cost": 89,
        "duration_hours": 3,
        "lat": 6.467430488751805,
        "lon": 79.39990133708551
      }
    ]
  },
  {
    "id": 127,
    "name": "Wildlife Explorer: Colombo",
    "destinations": [
      "Colombo"
    ],
    "days": 5,
    "price": 674,
    "interests": [
      "wildlife"
    ],
    "hotel_level": "Luxury",
    "activities": [
      {
        "name": "Jeep Safari in Colombo",
        "interest": "wildlife",
        "cost": 55,
        "duration_hours": 5,
        "lat": 7.627613319358994,
        "lon": 79.25125077589786
      },
      {
        "name": "Whale Watching in Colombo",
        "interest": "wildlife",
        "cost": 29,
        "duration_hours": 5,
        "lat": 6.540716392561509,
        "lon": 79.33074577638509
      }
    ]
  },
  {
    "id": 128,
    "name": "Relax Explorer: Galle, Anuradhapura",
    "destinations": [
      "Galle",
      "Anuradhapura"
    ],
    "days": 5,
    "price": 943,
    "interests": [
      "relax"
    ],
    "hotel_level": "Luxury",
    "activities": [
      {
        "name": "Beach Chill in Galle",
        "interest": "relax",
        "cost": 94,
        "duration_hours": 4,
        "lat": 6.3420820660970385,
        "lon": 80.17459492435701
      },
      {
        "name": "Sunset Walk in Galle",
        "interest": "relax",
        "cost": 97,
        "duration_hours": 2,
        "lat": 6.411964786235149,
        "lon": 80.00497579324625
      },
      {
        "name": "Beach Chill in Anuradhapura",
        "interest": "relax",
        "cost": 89,
        "duration_hours": 5,
        "lat": 6.818433492581597,
        "lon": 79.43472886167682
      },
      {
        "name": "Boat Ride in Anuradhapura",
        "interest": "relax",
        "cost": 33,
        "duration_hours": 4,
        "lat": 6.2975732208993875,
        "lon": 80.5375518050841
      }
    ]
  },
  {
    "id": 129,
    "name": "Relax Explorer: Trincomalee",
    "destinations": [
      "Trincomalee"
    ],
    "days": 5,
    "price": 609,
    "interests": [
      "relax"
    ],
    "hotel_level": "Budget",
    "activities": [
      {
        "name": "Beach Chill in Trincomalee",
        "interest": "relax",
        "cost": 74,
        "duration_hours": 4,
        "lat": 6.644847346888805,
        "lon": 80.05428359224797
      }
    ]
  },
  {
    "id": 130,
    "name": "Adventure Explorer: Kandy",
    "destinations": [
      "Kandy"
    ],
    "days": 3,
    "price": 361,
    "interests": [
      "adventure"
    ],
    "hotel_level": "Budget",
    "activities": [
      {
        "name": "Ziplining in Kandy",
        "interest": "adventure",
        "cost": 37,
        "duration_hours": 3,
        "lat": 7.70745091324454,
        "lon": 79.89850019284262
      },
      {
        "name": "Hiking in Kandy",
        "interest": "adventure",
        "cost": 21,
        "duration_hours": 4,
        "lat": 6.148814092443004,
        "lon": 80.17225392369983
      }
    ]
  },
  {
    "id": 131,
    "name": "Wildlife Explorer: Anuradhapura, Mirissa",
    "destinations": [
      "Anuradhapura",
      "Mirissa"
    ],
    "days": 5,
    "price": 642,
    "interests": [
      "wildlife"
    ],
    "hotel_level": "Luxury",
    "activities": [
      {
        "name": "Turtle Hatchery in Anuradhapura",
        "interest": "wildlife",
        "cost": 27,
        "duration_hours": 2,
        "lat": 7.008637496368408,
        "lon": 80.51234251082474
      },
      {
        "name": "Jeep Safari in Anuradhapura",
        "interest": "wildlife",
        "cost": 98,
        "duration_hours": 3,
        "lat": 6.5634997463609706,
        "lon": 80.94332404213586
      },
      {
        "name": "Bird Watching in Mirissa",
        "interest": "wildlife",
        "cost": 28,
        "duration_hours": 2,
        "lat": 6.388961587538899,
        "lon": 79.69646088772097
      },
      {
        "name": "Bird Watching in Mirissa",
        "interest": "wildlife",
        "cost": 39,
        "duration_hours": 2,
        "lat": 6.5232540428823835,
        "lon": 80.8098364097162
      }
    ]
  },
  {
    "id": 132,
    "name": "Wildlife Explorer: Mirissa",
    "destinations": [
      "Mirissa"
    ],
    "days": 3,
    "price": 506,
    "interests": [
      "wildlife"
    ],
    "hotel_level": "Budget",
    "activities": [
      {
        "name": "Jeep Safari in Mirissa",
        "interest": "wildlife",
        "cost": 90,
        "duration_hours": 3,
        "lat": 7.0465380021634605,
        "lon": 79.63888829711175
      },
      {
        "name": "Bird Watching in Mirissa",
        "interest": "wildlife",
        "cost": 80,
        "duration_hours": 3,
        "lat": 6.380757373985782,
        "lon": 79.31977364223376
      }
    ]
  },
  {
    "id": 133,
    "name": "Adventure Explorer: Colombo",
    "destinations": [
      "Colombo"
    ],
    "days": 5,
    "price": 806,
    "interests": [
      "adventure"
    ],
    "hotel_level": "Standard",
    "activities": [
      {
        "name": "Hiking in Colombo",
        "interest": "adventure",
        "cost": 57,
        "duration_hours": 4,
        "lat": 7.039481266264758,
        "lon": 79.5097870614682
      },
      {
        "name": "Surfing in Colombo",
        "interest": "adventure",
        "cost": 49,
        "duration_hours": 5,
        "lat": 6.915419750554364,
        "lon": 80.97690129456164
      }
    ]
  },
  {
    "id": 134,
    "name": "Adventure Explorer: Ella",
    "destinations": [
      "Ella"
    ],
    "days": 2,
    "price": 415,
    "interests": [
      "adventure"
    ],
    "hotel_level": "Luxury",
    "activities": [
      {
        "name": "Ziplining in Ella",
        "interest": "adventure",
        "cost": 73,
        "duration_hours": 5,
        "lat": 6.63722572449211,
        "lon": 80.06498468558598
      }
    ]
  },
  {
    "id": 135,
    "name": "Adventure Explorer: Galle",
    "destinations": [
      "Galle"
    ],
    "days": 1,
    "price": 250,
    "interests": [
      "adventure"
    ],
    "hotel_level": "Budget",
    "activities": [
      {
        "name": "Hiking in Galle",
        "interest": "adventure",
        "cost": 89,
        "duration_hours": 5,
        "lat": 7.365531953154902,
        "lon": 80.81057885232958
      }
    ]
  },
  {
    "id": 136,
    "name": "Adventure Explorer: Yala",
    "destinations": [
      "Yala"
    ],
    "days": 2,
    "price": 423,
    "interests": [
      "adventure"
    ],
    "hotel_level": "Standard",
    "activities": [
      {
        "name": "Hiking in Yala",
        "interest": "adventure",
        "cost": 90,
        "duration_hours": 5,
        "lat": 7.5715413705274885,
        "lon": 80.24934080321464
      },
      {
        "name": "Ziplining in Yala",
        "interest": "adventure",
        "cost": 53,
        "duration_hours": 4,
        "lat": 7.168200957749776,
        "lon": 79.92962905152842
      }
    ]
  },
  {
    "id": 137,
    "name": "Relax Explorer: Mirissa, Galle",
    "destinations": [
      "Mirissa",
      "Galle"
    ],
    "days": 4,
    "price": 1033,
    "interests": [
      "relax"
    ],
    "hotel_level": "Luxury",
    "activities": [
      {
        "name": "Sunset Walk in Mirissa",
        "interest": "relax",
        "cost": 100,
        "duration_hours": 2,
        "lat": 7.363705248619329,
        "lon": 80.05771387992976
      },
      {
        "name": "Boat Ride in Galle",
        "interest": "relax",
        "cost": 97,
        "duration_hours": 5,
        "lat": 6.422749501669891,
        "lon": 79.08148307225404
      },
      {
        "name": "Boat Ride in Galle",
        "interest": "relax",
        "cost": 48,
        "duration_hours": 4,
        "lat": 7.869550770866814,
        "lon": 80.97202485298673
      }
    ]
  },
  {
    "id": 138,
    "name": "Wildlife Explorer: Ella",
    "destinations": [
      "Ella"
    ],
    "days": 1,
    "price": 314,
    "interests": [
      "wildlife"
    ],
    "hotel_level": "Standard",
    "activities": [
      {
        "name": "Bird Watching in Ella",
        "interest": "wildlife",
        "cost": 84,
        "duration_hours": 2,
        "lat": 6.27014464161942,
        "lon": 79.15545817299174
      },
      {
        "name": "Turtle Hatchery in Ella",
        "interest": "wildlife",
        "cost": 30,
        "duration_hours": 2,
        "lat": 7.327032461550866,
        "lon": 80.27478174381847
      }
    ]
  },
  {
    "id": 139,
    "name": "Wildlife Explorer: Mirissa",
    "destinations": [
      "Mirissa"
    ],
    "days": 3,
    "price": 509,
    "interests": [
      "wildlife"
    ],
    "hotel_level": "Budget",
    "activities": [
      {
        "name": "Turtle Hatchery in Mirissa",
        "interest": "wildlife",
        "cost": 19,
        "duration_hours": 4,
        "lat": 6.335442550149489,
        "lon": 80.38315391559232
      },
      {
        "name": "Bird Watching in Mirissa",
        "interest": "wildlife",
        "cost": 58,
        "duration_hours": 2,
        "lat": 7.52963895870934,
        "lon": 80.37433640257575
      }
    ]
  },
  {
    "id": 140,
    "name": "Wildlife Explorer: Trincomalee",
    "destinations": [
      "Trincomalee"
    ],
    "days": 2,
    "price": 319,
    "interests": [
      "wildlife"
    ],
    "hotel_level": "Standard",
    "activities": [
      {
        "name": "Turtle Hatchery in Trincomalee",
        "interest": "wildlife",
        "cost": 63,
        "duration_hours": 4,
        "lat": 6.155769777647396,
        "lon": 79.02139313544657
      }
    ]
  },
  {
    "id": 141,
    "name": "Culture Explorer: Mirissa",
    "destinations": [
      "Mirissa"
    ],
    "days": 5,
    "price": 987,
    "interests": [
      "culture"
    ],
    "hotel_level": "Budget",
    "activities": [
      {
        "name": "Temple Visit in Mirissa",
        "interest": "culture",
        "cost": 27,
        "duration_hours": 3,
        "lat": 7.975348462127792,
        "lon": 80.41826958146001
      }
    ]
  },
  {
    "id": 142,
    "name": "Wildlife Explorer: Sigiriya, Galle",
    "destinations": [
      "Sigiriya",
      "Galle"
    ],
    "days": 5,
    "price": 730,
    "interests": [
      "wildlife"
    ],
    "hotel_level": "Budget",
    "activities": [
      {
        "name": "Whale Watching in Sigiriya",
        "interest": "wildlife",
        "cost": 26,
        "duration_hours": 4,
        "lat": 6.051896582692457,
        "lon": 80.22103675082016
      },
      {
        "name": "Turtle Hatchery in Sigiriya",
        "interest": "wildlife",
        "cost": 33,
        "duration_hours": 4,
        "lat": 7.78136084739489,
        "lon": 79.60074285710797
      },
      {
        "name": "Turtle Hatchery in Galle",
        "interest": "wildlife",
        "cost": 87,
        "duration_hours": 2,
        "lat": 6.971096590922006,
        "lon": 80.87320954718317
      },
      {
        "name": "Jeep Safari in Galle",
        "interest": "wildlife",
        "cost": 59,
        "duration_hours": 2,
        "lat": 7.727781101711253,
        "lon": 79.7241012814124
      }
    ]
  },
  {
    "id": 143,
    "name": "Culture Explorer: Yala",
    "destinations": [
      "Yala"
    ],
    "days": 4,
    "price": 550,
    "interests": [
      "culture"
    ],
    "hotel_level": "Standard",
    "activities": [
      {
        "name": "Temple Visit in Yala",
        "interest": "culture",
        "cost": 21,
        "duration_hours": 4,
        "lat": 6.9595118986087465,
        "lon": 80.30666781843367
      },
      {
        "name": "Museum Tour in Yala",
        "interest": "culture",
        "cost": 21,
        "duration_hours": 5,
        "lat": 7.144417441008381,
        "lon": 80.93953351883157
      }
    ]
  },
  {
    "id": 144,
    "name": "Adventure Explorer: Ella",
    "destinations": [
      "Ella"
    ],
    "days": 1,
    "price": 335,
    "interests": [
      "adventure"
    ],
    "hotel_level": "Standard",
    "activities": [
      {
        "name": "Snorkeling in Ella",
        "interest": "adventure",
        "cost": 67,
        "duration_hours": 5,
        "lat": 7.1719297078101505,
        "lon": 80.9593917136123
      },
      {
        "name": "Ziplining in Ella",
        "interest": "adventure",
        "cost": 84,
        "duration_hours": 2,
        "lat": 6.242469217970674,
        "lon": 79.02367040661325
      }
    ]
  },
  {
    "id": 145,
    "name": "Relax Explorer: Anuradhapura",
    "destinations": [
      "Anuradhapura"
    ],
    "days": 5,
    "price": 937,
    "interests": [
      "relax"
    ],
    "hotel_level": "Luxury",
    "activities": [
      {
        "name": "Spa Treatment in Anuradhapura",
        "interest": "relax",
        "cost": 52,
        "duration_hours": 5,
        "lat": 7.988488497825967,
        "lon": 80.84646931487386
      },
      {
        "name": "Boat Ride in Anuradhapura",
        "interest": "relax",
        "cost": 95,
        "duration_hours": 2,
        "lat": 6.358161851663674,
        "lon": 80.62778428821508
      }
    ]
  },
  {
    "id": 146,
    "name": "Culture Explorer: Sigiriya",
    "destinations": [
      "Sigiriya"
    ],
    "days": 3,
    "price": 342,
    "interests": [
      "culture"
    ],
    "hotel_level": "Luxury",
    "activities": [
      {
        "name": "Cultural Show in Sigiriya",
        "interest": "culture",
        "cost": 84,
        "duration_hours": 2,
        "lat": 6.498216968239339,
        "lon": 79.45932147152514
      }
    ]
  },
  {
    "id": 147,
    "name": "Wildlife Explorer: Yala",
    "destinations": [
      "Yala"
    ],
    "days": 1,
    "price": 355,
    "interests": [
      "wildlife"
    ],
    "hotel_level": "Budget",
    "activities": [
      {
        "name": "Whale Watching in Yala",
        "interest": "wildlife",
        "cost": 76,
        "duration_hours": 4,
        "lat": 6.811578163631255,
        "lon": 80.81492126668911
      },
      {
        "name": "Whale Watching in Yala",
        "interest": "wildlife",
        "cost": 94,
        "duration_hours": 3,
        "lat": 7.3946845445848375,
        "lon": 79.38974275089264
      }
    ]
  },
  {
    "id": 148,
    "name": "Adventure Explorer: Sigiriya",
    "destinations": [
      "Sigiriya"
    ],
    "days": 2,
    "price": 445,
    "interests": [
      "adventure"
    ],
    "hotel_level": "Budget",
    "activities": [
      {
        "name": "Surfing in Sigiriya",
        "interest": "adventure",
        "cost": 68,
        "duration_hours": 4,
        "lat": 7.420424981838572,
        "lon": 80.10133497240446
      },
      {
        "name": "Snorkeling in Sigiriya",
        "interest": "adventure",
        "cost": 37,
        "duration_hours": 5,
        "lat": 6.5970308385508885,
        "lon": 79.2120594605413
      }
    ]
  },
  {
    "id": 149,
    "name": "Relax Explorer: Anuradhapura",
    "destinations": [
      "Anuradhapura"
    ],
    "days": 3,
    "price": 365,
    "interests": [
      "relax"
    ],
    "hotel_level": "Budget",
    "activities": [
      {
        "name": "Beach Chill in Anuradhapura",
        "interest": "relax",
        "cost": 79,
        "duration_hours": 2,
        "lat": 6.305544407385164,
        "lon": 79.76380814800437
      },
      {
        "name": "Sunset Walk in Anuradhapura",
        "interest": "relax",
        "cost": 28,
        "duration_hours": 5,
        "lat": 6.943612953876548,
        "lon": 79.27604098676701
      }
    ]
  },
  {
    "id": 150,
    "name": "Relax Explorer: Ella",
    "destinations": [
      "Ella"
    ],
    "days": 2,
    "price": 229,
    "interests": [
      "relax"
    ],
    "hotel_level": "Luxury",
    "activities": [
      {
        "name": "Beach Chill in Ella",
        "interest": "relax",
        "cost": 37,
        "duration_hours": 5,
        "lat": 7.818981552099596,
        "lon": 80.58424357325976
      },
      {
        "name": "Spa Treatment in Ella",
        "interest": "relax",
        "cost": 24,
        "duration_hours": 3,
        "lat": 6.8747886545615255,
        "lon": 80.54214372851881
      }
    ]
  },
  {
    "id": 151,
    "name": "Adventure Explorer: Yala",
    "destinations": [
      "Yala"
    ],
    "days": 4,
    "price": 464,
    "interests": [
      "adventure"
    ],
    "hotel_level": "Luxury",
    "activities": [
      {
        "name": "Snorkeling in Yala",
        "interest": "adventure",
        "cost": 80,
        "duration_hours": 2,
        "lat": 7.6765659659561205,
        "lon": 79.43702804129705
      }
    ]
  },
  {
    "id": 152,
    "name": "Wildlife Explorer: Yala",
    "destinations": [
      "Yala"
    ],
    "days": 3,
    "price": 232,
    "interests": [
      "wildlife"
    ],
    "hotel_level": "Budget",
    "activities": [
      {
        "name": "Bird Watching in Yala",
        "interest": "wildlife",
        "cost": 40,
        "duration_hours": 2,
        "lat": 7.591988633487619,
        "lon": 80.41427186457423
      }
    ]
  },
  {
    "id": 153,
    "name": "Culture Explorer: Trincomalee",
    "destinations": [
      "Trincomalee"
    ],
    "days": 1,
    "price": 256,
    "interests": [
      "culture"
    ],
    "hotel_level": "Standard",
    "activities": [
      {
        "name": "Ancient Ruins in Trincomalee",
        "interest": "culture",
        "cost": 70,
        "duration_hours": 4,
        "lat": 7.179764643375357,
        "lon": 79.79827135159206
      },
      {
        "name": "Temple Visit in Trincomalee",
        "interest": "culture",
        "cost": 71,
        "duration_hours": 4,
        "lat": 6.967458735031758,
        "lon": 80.17860146667387
      }
    ]
  },
  {
    "id": 154,
    "name": "Culture Explorer: Kandy",
    "destinations": [
      "Kandy"
    ],
    "days": 5,
    "price": 525,
    "interests": [
      "culture"
    ],
    "hotel_level": "Budget",
    "activities": [
      {
        "name": "Museum Tour in Kandy",
        "interest": "culture",
        "cost": 55,
        "duration_hours": 3,
        "lat": 7.6060345851445295,
        "lon": 79.47230054247984
      },
      {
        "name": "Temple Visit in Kandy",
        "interest": "culture",
        "cost": 95,
        "duration_hours": 2,
        "lat": 6.355507462447321,
        "lon": 80.84556855558372
      }
    ]
  },
  {
    "id": 155,
    "name": "Adventure Explorer: Colombo, Trincomalee",
    "destinations": [
      "Colombo",
      "Trincomalee"
    ],
    "days": 4,
    "price": 750,
    "interests": [
      "adventure"
    ],
    "hotel_level": "Luxury",
    "activities": [
      {
        "name": "Snorkeling in Colombo",
        "interest": "adventure",
        "cost": 39,
        "duration_hours": 3,
        "lat": 7.1214409135808845,
        "lon": 80.75426429200841
      },
      {
        "name": "Ziplining in Trincomalee",
        "interest": "adventure",
        "cost": 99,
        "duration_hours": 3,
        "lat": 6.165202547637679,
        "lon": 80.87661697840619
      }
    ]
  },
  {
    "id": 156,
    "name": "Adventure Explorer: Anuradhapura",
    "destinations": [
      "Anuradhapura"
    ],
    "days": 3,
    "price": 212,
    "interests": [
      "adventure"
    ],
    "hotel_level": "Luxury",
    "activities": [
      {
        "name": "Ziplining in Anuradhapura",
        "interest": "adventure",
        "cost": 29,
        "duration_hours": 5,
        "lat": 7.7156438530345435,
        "lon": 80.97219804265876
      }
    ]
  },
  {
    "id": 157,
    "name": "Wildlife Explorer: Anuradhapura",
    "destinations": [
      "Anuradhapura"
    ],
    "days": 3,
    "price": 406,
    "interests": [
      "wildlife"
    ],
    "hotel_level": "Luxury",
    "activities": [
      {
        "name": "Whale Watching in Anuradhapura",
        "interest": "wildlife",
        "cost": 85,
        "duration_hours": 5,
        "lat": 6.947509631975914,
        "lon": 79.29185900345577
      }
    ]
  },
  {
    "id": 158,
    "name": "Adventure Explorer: Kandy",
    "destinations": [
      "Kandy"
    ],
    "days": 4,
    "price": 724,
    "interests": [
      "adventure"
    ],
    "hotel_level": "Budget",
    "activities": [
      {
        "name": "Surfing in Kandy",
        "interest": "adventure",
        "cost": 11,
        "duration_hours": 2,
        "lat": 6.068322530715028,
        "lon": 80.26307568409541
      },
      {
        "name": "Snorkeling in Kandy",
        "interest": "adventure",
        "cost": 41,
        "duration_hours": 3,
        "lat": 6.448446638135618,
        "lon": 79.95135443944645
      }
    ]
  },
  {
    "id": 159,
    "name": "Relax Explorer: Nuwara Eliya",
    "destinations": [
      "Nuwara Eliya"
    ],
    "days": 5,
    "price": 988,
    "interests": [
      "relax"
    ],
    "hotel_level": "Luxury",
    "activities": [
      {
        "name": "Sunset Walk in Nuwara Eliya",
        "interest": "relax",
        "cost": 18,
        "duration_hours": 2,
        "lat": 6.048071320183824,
        "lon": 80.8777345789562
      }
    ]
  },
  {
    "id": 160,
    "name": "Wildlife Explorer: Sigiriya, Nuwara Eliya",
    "destinations": [
      "Sigiriya",
      "Nuwara Eliya"
    ],
    "days": 4,
    "price": 791,
    "interests": [
      "wildlife"
    ],
    "hotel_level": "Budget",
    "activities": [
      {
        "name": "Bird Watching in Sigiriya",
        "interest": "wildlife",
        "cost": 59,
        "duration_hours": 3,
        "lat": 7.410860038899802,
        "lon": 79.79562745323399
      },
      {
        "name": "Whale Watching in Nuwara Eliya",
        "interest": "wildlife",
        "cost": 28,
        "duration_hours": 2,
        "lat": 7.570900180224622,
        "lon": 79.22588639389178
      }
    ]
  },
  {
    "id": 161,
    "name": "Adventure Explorer: Anuradhapura",
    "destinations": [
      "Anuradhapura"
    ],
    "days": 5,
    "price": 612,
    "interests": [
      "adventure"
    ],
    "hotel_level": "Standard",
    "activities": [
      {
        "name": "Hiking in Anuradhapura",
        "interest": "adventure",
        "cost": 12,
        "duration_hours": 2,
        "lat": 6.436976363011709,
        "lon": 80.77318534297686
      }
    ]
  },